,id,iata,en_name,ru_name,beauty_name,country_iata,country_name,lon,lat
0,22,AAX,Araxa,Араша,Araxa (AAX),BR,Brazil,-46.92917,-19.568056
1,28,ABE,Allentown,Аллентаун,Allentown (ABE),US,United States,-75.434364,40.651573
2,48,ABY,Albany,Олбани,Albany (ABY),US,United States,-84.155741,31.5785074
3,68,ACX,Xingyi,Синъи,Xingyi (ACX),CN,China,104.95944,25.085556
4,73,ADE,Aden,Аден,Aden (ADE),YE,Yemen,45.037537,12.826116
5,8575,ADM,Ardmore,Ардмор,Ardmore (ADM),US,United States,-97.01945,34.303055
6,91,AED,Aleneva,Аленива,Aleneva (AED),US,United States,-152.9,58.033333
7,109,AFO,Afton,Афтон,Afton (AFO),US,United States,-110.933334,42.733334
8,122,AGJ,Aguni,Агуни,Aguni (AGJ),JP,Japan,127.23805,26.589722
9,161,AIK,Aiken,Эйкен,Aiken (AIK),US,United States,-81.71667,33.566666
10,190,AKG,Anguganak,Ангуганак,Anguganak (AKG),PG,Papua New Guinea,142.01666,-3.633333
11,196,AKM,Zakouma,Закума,Zakouma (AKM),TD,Chad,19.816668,10.883333
12,198,AKO,Akron,Акрон,Akron (AKO),US,United States,-103.21667,40.166668
13,206,AKX,Aktyubinsk,Актобе,Aktyubinsk (AKX),KZ,Kazakhstan,57.211403,50.249336
14,252,AMU,Amanab,Аманаб,Amanab (AMU),PG,Papua New Guinea,141.15,-3.516667
15,7,AAH,Aachen,Ахен,Aachen (AAH),DE,Germany,6.0815102,50.7754385
16,26,ABC,Albacete,Альбасете,Albacete (ABC),ES,Spain,-1.8600701,38.9976516
17,31,ABH,Alpha,Алфа,Alpha (ABH),AU,Australia,146.63333,-23.65
18,37,ABN,Albina,Албина,Albina (ABN),SR,Suriname,-54.083332,5.5
19,39,ABP,Atkamba,Аткамба,Atkamba (ABP),PG,Papua New Guinea,141.1,-6.066667
20,76,ADH,Aldan,Алдан,Aldan (ADH),RU,Russia,125.4,58.6
21,82,ADQ,Kodiak,Кадьяк,Kodiak (ADQ),US,United States,-152.4072222,57.79
22,126,AGN,Angoon,Ангун,Angoon (AGN),US,United States,-134.58333,57.503887
23,138,AHB,Abha,Абха,Abha (AHB),SA,Saudi Arabia,42.657574,18.23429
24,167,AIR,Aripuana,Арипуанан,Aripuana (AIR),BR,Brazil,-59.38333,-10.25
25,184,AJY,Agades,Агадес,Agades (AJY),NE,Niger,7.993056,16.964167
26,185,AKA,Ankang,Анькан,Ankang (AKA),CN,China,108.936,32.7091
27,199,AKP,Anaktuvuk,Анактувук,Anaktuvuk (AKP),US,United States,-151.74,68.1375
28,216,ALI,Alice,Элис,Alice (ALI),US,United States,-98.066666,27.75
29,230,ALX,Alexander City,Александер-Сити,Alexander City (ALX),US,United States,-85.95,32.933334
30,54,ACE,Lanzarote,Лансароте,Lanzarote (ACE),ES,Spain,-13.609059,28.950668
31,88,ADY,Alldays,Олдэйс,Alldays (ADY),ZA,South Africa,29.05,-22.666668
32,108,AFN,Jaffrey,Джеффри,Jaffrey (AFN),US,United States,-72.066666,42.833332
33,113,AFY,Afyon,Афьонкарахисар,Afyon (AFY),TR,Turkey,30.6,38.733334
34,114,AFZ,Sabzevar,Себзевар,Sabzevar (AFZ),IR,Iran,57.60332,36.171513
35,116,AGD,Anggi,Анги,Anggi (AGD),ID,Indonesia,133.86667,-1.383333
36,128,AGP,Malaga,Малага,Malaga (AGP),ES,Spain,-4.4200163,36.7196484
37,156,AIE,Aiome,Айоме,Aiome (AIE),PG,Papua New Guinea,144.66667,-5.166667
38,181,AJR,Arvidsjaur,Арвидсъяур,Arvidsjaur (AJR),SE,Sweden,19.285557,65.59139
39,222,ALO,Waterloo,Уотерлу,Waterloo (ALO),US,United States,-92.39972,42.55611
40,227,ALT,Alenquer,Аленкер,Alenquer (ALT),BR,Brazil,-54.766666,-1.933333
41,229,ALW,Walla Walla,Уолла-Уолла,Walla Walla (ALW),US,United States,-118.291115,46.094723
42,247,AMP,Ampanihy,Ампанихи,Ampanihy (AMP),MG,Madagascar,44.733334,-24.7
43,251,AMT,Amata,Амата,Amata (AMT),AU,Australia,132.03334,-26.766666
44,253,AMV,Amderma,Амдерма,Amderma (AMV),RU,Russia,61.55,69.76667
45,257,AMZ,Ardmore,Ардмор,Ardmore (AMZ),NZ,New Zealand,174.96666,-37.033333
46,271,ANO,Angoche,Ангоше,Angoche (ANO),MZ,Mozambique,39.936943,-16.177778
47,312,APS,Anapolis,Анаполис,Anapolis (APS),BR,Brazil,-48.966667,-16.333332
48,316,APW,Apia,Апиа,Apia (APW),WS,Samoa,-171.7666667,-13.8333333
49,320,AQA,Araraquara,Араракуара,Araraquara (AQA),BR,Brazil,-48.13333,-21.816668
50,321,AQB,Quiche,Киче,Quiche (AQB),GT,Guatemala,-91.15,15.01
51,324,AQJ,Aqaba,Акаба,Aqaba (AQJ),JO,Jordan,35.02151,29.610073
52,359,ASG,Ashburton,Ашбертон,Ashburton (ASG),NZ,New Zealand,171.78334,-43.9
53,368,ASP,Alice Springs,Элис-Спрингс,Alice Springs (ASP),AU,Australia,133.8806114,-23.7002104
54,387,ATK,Atqasuk,Аткасук,Atqasuk (ATK),US,United States,-157.33333,70.5
55,408,AUF,Auxerre,Осер,Auxerre (AUF),FR,France,3.5,47.85
56,429,AVB,Aviano,Авиано,Aviano (AVB),IT,Italy,12.6,46.033333
57,453,AXE,Xanxere,Шаншере,Xanxere (AXE),BR,Brazil,-52.38333,-26.883333
58,234,AMB,Ambilobe,Амбилубе,Ambilobe (AMB),MG,Madagascar,48.983334,-13.183333
59,235,AMC,Am Timan,Ам-Тиман,Am Timan (AMC),TD,Chad,20.283333,11.033333
60,245,AMN,Alma,Алма,Alma (AMN),US,United States,-84.65,43.38333
61,261,AND,Anderson,Андерсон,Anderson (AND),US,United States,-82.71,34.49361
62,263,ANF,Antofagasta,Антофагаста,Antofagasta (ANF),CL,Chile,-70.44079,-23.449
63,272,ANP,Annapolis,Аннаполис,Annapolis (ANP),US,United States,-76.5,38.983334
64,280,ANX,Andenes,Анденес,Andenes (ANX),NO,Norway,16.133326,69.30492
65,286,AOD,Abou Deia,Абу-Дея,Abou Deia (AOD),TD,Chad,19.288889,11.474722
66,386,ATJ,Antsirabe,Анцирабе,Antsirabe (ATJ),MG,Madagascar,47.016666,-19.85
67,410,AUH,Abu Dhabi,Абу-Даби,Abu Dhabi (AUH),AE,United Arab Emirates,54.3666667,24.4666667
68,424,AUV,Aumo,Аумо,Aumo (AUV),PG,Papua New Guinea,148.43333,-5.716667
69,433,AVL,Asheville,Ашвилл,Asheville (AVL),US,United States,-82.537315,35.43508
70,435,AVO,Avon Park,Эйвон-Парк,Avon Park (AVO),US,United States,-81.51667,27.6
71,447,AWR,Awar,Авар,Awar (AWR),PG,Papua New Guinea,144.87029,-4.124167
72,457,AXM,Armenia,Армения,Armenia (AXM),CO,Colombia,-75.76804,4.452869
73,462,AXU,Axum,Аксум,Axum (AXU),ET,Ethiopia,38.716667,14.120833
74,496,BAG,Baguio,Багио,Baguio (BAG),PH,Philippines,120.617775,16.376667
75,499,BAJ,Bali,Бали (Папуа — Новая Гвинея),Bali (BAJ),PG,Papua New Guinea,149.13333,-4.833333
76,532,BBT,Berberati,Берберати,Berberati (BBT),CF,Central African Republic,15.788056,4.219167
77,540,BCC,Bear Creek,Беар-Крик,Bear Creek (BCC),US,United States,-109.1,45.183334
78,589,BDZ,Baindoung,Байндунг,Baindoung (BDZ),PG,Papua New Guinea,146.95,-6.333333
79,612,BFA,Bahia Negra,Баия-Негра,Bahia Negra (BFA),PY,Paraguay,-58.170277,-20.232779
80,8701,BFH,Curitiba.,Куритиба,Curitiba. (BFH),BR,Brazil,-49.23389,-25.4025
81,624,BFR,Bedford,Бедфорд,Bedford (BFR),US,United States,-86.48333,38.86667
82,629,BFW,Sidi Belabbes,Сиди-Бель-Аббес,Sidi Belabbes (BFW),DZ,Algeria,-0.589444,35.171665
83,663,BHK,Bukhara,Бухара,Bukhara (BHK),UZ,Uzbekistan,64.47479,39.76037
84,698,BIV,Bria,Бриа,Bria (BIV),CF,Central African Republic,21.983334,6.533333
85,255,AMX,Ammaroo,Аммару,Ammaroo (AMX),AU,Australia,135.24,-21.74
86,267,ANJ,Zanaga,Занага,Zanaga (ANJ),CG,Republic of the Congo,13.833333,-2.85
87,303,APH,Bowling Green,Боулинг-Грин,Bowling Green (APH),US,United States,-77.35,38.05
88,326,AQP,Arequipa,Арекипа,Arequipa (AQP),PE,Peru,-71.56799,-16.344812
89,349,ARV,Minocqua,Минокуа,Minocqua (ARV),US,United States,-89.73222,45.924168
90,354,ASB,Ashgabat,Ашхабад,Ashgabat (ASB),TM,Turkmenistan,58.366978,37.984184
91,361,ASI,Georgetown,Джорджтаун,Georgetown (ASI),SH,"Saint Helena, Ascension and Tristan da Cunha",-14.4,-7.966667
92,370,ASR,Kayseri,Кайсери,Kayseri (ASR),TR,Turkey,35.490707,38.7742
93,381,ATE,Antlers,Антлерс,Antlers (ATE),US,United States,-95.61667,34.233334
94,446,AWP,Austral Downs,Острал-Даунс,Austral Downs (AWP),AU,Australia,137.75,-20.5
95,476,AYQ,Ayers Rock,Улуру,Ayers Rock (AYQ),AU,Australia,130.97658,-25.190878
96,491,AZZ,Ambriz,Амбриш,Ambriz (AZZ),AO,Angola,13.15,-7.883333
97,498,BAI,Buenos Aires,Буэнос-Айрес,Buenos Aires (BAI),CR,Costa Rica,-83.333336,9.166667
98,500,BAK,Baku,Баку,Baku (BAK),AZ,Azerbaijan,49.8676232,40.4349504
99,4,AAE,Annaba,Аннаба,Annaba (AAE),DZ,Algeria,7.811857,36.821392
100,41,ABR,Aberdeen,Абердин,Aberdeen (ABR),US,United States,-98.42611,45.4525
101,46,ABW,Abau,Абау,Abau (ABW),PG,Papua New Guinea,148.7,-10.183333
102,50,ACA,Acapulco,Акапулько-де-Хуарес,Acapulco (ACA),MX,Mexico,-99.75459,16.762403
103,55,ACH,Altenrhein,Санкт-Галлен,Altenrhein (ACH),CH,Switzerland,9.566667,47.483334
104,69,ACZ,Zabol,Заболь,Zabol (ACZ),IR,Iran,61.542244,31.087694
105,71,ADC,Andakombe,Андакомбе,Andakombe (ADC),PG,Papua New Guinea,145.73334,-7.133333
106,84,ADT,Ada,Ада,Ada (ADT),US,United States,-96.666664,34.8
107,89,ADZ,San Andres Island,Сан-Андрес,San Andres Island (ADZ),CO,Colombia,-81.70221,12.586047
108,92,AEG,Aek Godang,Аек-Годанг,Aek Godang (AEG),ID,Indonesia,99.416664,1.3997220000000001
109,94,AEI,Algeciras,Альхесирас,Algeciras (AEI),ES,Spain,-5.441301,36.1289
110,132,AGT,Ciudad del Este,Сьюдад-дель-Эсте,Ciudad del Este (AGT),PY,Paraguay,-54.833332,-25.5
111,140,AHE,Ahe,Ахе,Ahe (AHE),PF,French Polynesia,-146.25694,-14.428056
112,160,AII,Alisabieh,Али-Сабих,Alisabieh (AII),DJ,Djibouti,42.716667,11.15
113,454,AXG,Algona,Алгона,Algona (AXG),US,United States,-94.23333,43.066666
114,459,AXP,Spring Point,Спринг-Пойнт,Spring Point (AXP),BS,Bahamas,-73.96667,22.45
115,9161,AZL,Sapezal,Сапезал,Sapezal (AZL),BR,Brazil,-57.76737,-13.264355
116,506,BAQ,Barranquilla,Барранкилья,Barranquilla (BAQ),CO,Colombia,-74.77618,10.886398
117,510,BAV,Baotou,Баотоу,Baotou (BAV),CN,China,110.0009,40.563328
118,513,BAY,Baia Mare,Бая-Маре,Baia Mare (BAY),RO,Romania,23.466667,47.65
119,529,BBQ,Barbuda,Барбуда,Barbuda (BBQ),AG,Antigua and Barbuda,-61.765,17.555555
120,533,BBV,Bereby,Береби,Bereby (BBV),CI,Ivory Coast,-6.95,4.666667
121,537,BBZ,Zambezi,Замбези,Zambezi (BBZ),ZM,Zambia,23.11,-13.537222
122,576,BDM,Bandirma,Бандырма,Bandirma (BDM),TR,Turkey,27.977222,40.318333
123,577,BDN,Badin,Бадин,Badin (BDN),PK,Pakistan,68.9,24.633333
124,598,BEJ,Berau,Танджунг-Редеб,Berau (BEJ),ID,Indonesia,117.7,2.166667
125,605,BES,Brest,Брест (Франция),Brest (BES),FR,France,-4.415827,48.445374
126,709,BJH,Bajhang,Баджханг,Bajhang (BJH),NP,Nepal,81.25,29.55
127,711,BJJ,Wooster,Вустер,Wooster (BJJ),US,United States,-81.933334,40.8
128,712,BJK,Benjina,Бенджина,Benjina (BJK),ID,Indonesia,134.25,-6.083333
129,718,BJR,Bahar Dar,Бахр-Дар,Bahar Dar (BJR),ET,Ethiopia,37.32324,11.603292
130,768,BLV,Belleville,Беллвилл,Belleville (BLV),US,United States,-89.85183,38.65178
131,775,BMD,Belo,Белон-и-Цирибихина,Belo (BMD),MG,Madagascar,44.05,-20.733334
132,776,BME,Broome,Брум,Broome (BME),AU,Australia,122.23429,-17.95264
133,822,BOB,Bora Bora,Бора-Бора,Bora Bora (BOB),PF,French Polynesia,-151.75447,-16.446207
134,829,BOJ,Bourgas,Бургас,Bourgas (BOJ),BG,Bulgaria,27.283333,42.416668
135,831,BOL,Ballykelly,Балликелли,Ballykelly (BOL),GB,United Kingdom,-7.0,55.0
136,833,BON,Bonaire,Бонэйр,Bonaire (BON),BQ,Caribbean Netherlands,-68.27687,12.133403
137,845,BPA,Bethpage,Бетпейдж,Bethpage (BPA),US,United States,-73.48333,40.733334
138,8630,BQG,Bogorodskoye,Богородское,Bogorodskoye (BQG),RU,Russia,140.44833,52.378334
139,863,BQI,Bagani,Багани,Bagani (BQI),NA,Namibia,21.629723,-18.118055
140,47,ABX,Albury,Олбери,Albury (ABX),AU,Australia,146.95453,-36.069626
141,77,ADI,Arandis,Арандис,Arandis (ADI),NA,Namibia,15.0,-22.4
142,78,ADK,Adak Island,Адак,Adak Island (ADK),US,United States,-176.64473,51.88278
143,87,ADX,St Andrews,Сент-Эндрюс,St Andrews (ADX),GB,United Kingdom,-2.866667,56.36667
144,8596,AEB,Baise,Байсэ,Baise (AEB),CN,China,106.96777,23.71947
145,93,AEH,Abéché,Абеше,Abéché (AEH),TD,Chad,20.850834,13.851389
146,95,AEK,Aseki,Асеки,Aseki (AEK),PG,Papua New Guinea,146.28334,-7.366667
147,99,AES,Aalesund,Олесунн,Aalesund (AES),NO,Norway,6.116605,62.559643
148,125,AGM,Tasiilaq,Тасиилак,Tasiilaq (AGM),GL,Greenland,-37.683334,65.6
149,133,AGU,Aguascalientes,Агуаскальентес,Aguascalientes (AGU),MX,Mexico,-102.31374,21.701416000000002
150,136,AGX,Agatti Island,Агатти,Agatti Island (AGX),IN,India,72.17987,10.828967
151,145,AHN,Athens,Атенс,Athens (AHN),US,United States,-83.32472,33.95195
152,147,AHS,Ahuas,Ауас,Ahuas (AHS),HN,Honduras,-84.425,15.441667
153,191,AKH,Al Kharj,Эль-Хардж,Al Kharj (AKH),SA,Saudi Arabia,47.580555,24.063334
154,202,AKT,Akrotiri,Акротири,Akrotiri (AKT),CY,Cyprus,32.983334,34.583332
155,501,BAL,Batman,Батман,Batman (BAL),TR,Turkey,41.083332,37.916668
156,502,BAM,Battle Mountain,Баттл-Маунтин,Battle Mountain (BAM),US,United States,-116.933334,40.63333
157,507,BAR,Baker Island,Бейкер,Baker Island (BAR),US,United States,-133.6,55.333332
158,521,BBH,Barth,Штральзунд,Barth (BBH),DE,Germany,12.7249198,54.3630771
159,524,BBK,Kasane,Касане,Kasane (BBK),BW,Botswana,25.15,-17.816668
160,531,BBS,Yateley,Йатли,Yateley (BBS),GB,United Kingdom,-0.85,51.333332
161,548,BCK,Bolwarra,Болварра,Bolwarra (BCK),AU,Australia,144.16667,-17.4
162,558,BCU,Bauchi,Баучи,Bauchi (BCU),NG,Nigeria,9.8,10.366667
163,571,BDH,Bandar Lengeh,Бендер-Ленге,Bandar Lengeh (BDH),IR,Iran,54.829147,26.529486
164,587,BDX,Broadus,Бродас,Broadus (BDX),US,United States,-105.36667,45.466667
165,634,BGD,Borger,Борджер,Borger (BGD),US,United States,-101.4,35.65
166,639,BGI,Bridgetown,Бриджтаун,Bridgetown (BGI),BB,Barbados,-59.487835,13.080732
167,641,BGK,Big Creek,Биг-Крик,Big Creek (BGK),BZ,Belize,-88.4,16.516666
168,657,BHE,Blenheim,Бленем,Blenheim (BHE),NZ,New Zealand,173.86765,-41.513588
169,183,AJU,Aracaju,Аракажу,Aracaju (AJU),BR,Brazil,-37.072792,-10.987206
170,214,ALG,Algiers,Алжир,Algiers (ALG),DZ,Algeria,3.21167,36.70058
171,225,ALR,Alexandra,Александра,Alexandra (ALR),NZ,New Zealand,169.36945,-45.21389
172,226,ALS,Alamosa,Аламоса,Alamosa (ALS),US,United States,-105.86667,37.43667
173,231,ALY,Alexandria,Александрия,Alexandria (ALY),EG,Egypt,29.9443,31.2135
174,249,AMR,Almeria,Альмерия,Almeria (AMR),ES,Spain,36.834446,2.456111
175,282,ANZ,Angus Downs,Ангус-Даунс,Angus Downs (ANZ),AU,Australia,132.16667,-25.083332
176,287,AOG,Anshan,Аньшань,Anshan (AOG),CN,China,123.03333,41.166668
177,298,AOU,Attopeu,Аттапы,Attopeu (AOU),LA,Laos,106.833336,14.8
178,305,APK,Apataki,Апатаки,Apataki (APK),PF,French Polynesia,-146.08333,-15.416667
179,306,APL,Nampula,Нампула,Nampula (APL),MZ,Mozambique,39.287224,-15.101667
180,307,APN,Alpena,Алпина,Alpena (APN),US,United States,-83.55583,45.08167
181,313,APT,Jasper,Джаспер,Jasper (APT),US,United States,-85.5,35.066666
182,327,AQS,Saqani,Сакани,Saqani (AQS),FJ,Fiji,170.9,-17.0
183,626,BFT,Beaufort,Бофорт,Beaufort (BFT),US,United States,-80.635,32.41083
184,705,BJC,Broomfield,Денвер,Broomfield (BJC),US,United States,-105.066666,39.933334
185,720,BJT,Bentota River,Бентота,Bentota River (BJT),LK,Sri Lanka,79.98333,6.483333
186,730,BKF,Katmai National Park,Брукс-Лейк,Katmai National Park (BKF),US,United States,-156.23334,58.6
187,746,BKY,Bukavu,Букаву,Bukavu (BKY),CD,Democratic Republic of the Congo,28.816668,-2.3
188,753,BLG,Belaga,Белага,Belaga (BLG),MY,Malaysia,113.78333,2.7
189,773,BMB,Bumba,Бумба,Bumba (BMB),CD,Democratic Republic of the Congo,22.473333,2.19
190,779,BMH,Bomai,Бомаи,Bomai (BMH),PG,Papua New Guinea,144.58333,-6.416667
191,781,BMJ,Baramita,Барамита,Baramita (BMJ),GY,Guyana,-60.0,6.75
192,799,BNC,Beni,Бени,Beni (BNC),CD,Democratic Republic of the Congo,29.466667,0.566667
193,810,BNP,Bannu,Банну,Bannu (BNP),PK,Pakistan,70.666664,33.0
194,824,BOD,Bordeaux,Бордо,Bordeaux (BOD),FR,France,-0.57918,44.837789
195,825,BOE,Boundji,Бунджи,Boundji (BOE),CG,Republic of the Congo,15.383333,-1.033333
196,865,BQN,Aguadilla,Агуадилья,Aguadilla (BQN),PR,Puerto Rico,-67.13,18.495832
197,867,BQQ,Barra,Барра,Barra (BQQ),BR,Brazil,-43.13333,-11.083333
198,869,BQT,Brest,Брест,Brest (BQT),BY,Belarus,23.883333,52.11667
199,890,BRT,Bathurst Island,Батерст-Айленд,Bathurst Island (BRT),AU,Australia,130.63333,-11.766667
200,919,BSY,Bardera,Бардера,Bardera (BSY),SO,Somalia,42.333332,2.35
201,928,BTH,Batam,Батам,Batam (BTH),ID,Indonesia,104.11528,1.123627
202,936,BTP,Butler,Батлер,Butler (BTP),US,United States,-79.916664,40.85
203,971,BVD,Beaver Inlet,Бивер-Инлет,Beaver Inlet (BVD),US,United States,-166.31667,53.733334
204,1016,BXK,Buckeye,Бакай,Buckeye (BXK),US,United States,-112.583336,33.36667
205,1036,BYN,Bayankhongor,Баянхонгор,Bayankhongor (BYN),MN,Mongolia,100.683334,46.1
206,1039,BYR,Laeso Island,Лесё,Laeso Island (BYR),DK,Denmark,11.005083,57.27756
207,1064,CAA,Catacamas,Катакамас,Catacamas (CAA),HN,Honduras,-85.89445,14.830556
208,1125,CCO,Carimagua,Каримагуа,Carimagua (CCO),CO,Colombia,-71.333336,4.566667
209,1134,CCX,Caceres,Касерис,Caceres (CCX),BR,Brazil,-57.7,-16.066668
210,1145,CDK,Cedar Key,Сидар-Ки,Cedar Key (CDK),US,United States,-83.03333,29.133333
211,203,AKU,Aksu,Аксу,Aksu (AKU),CN,China,80.29262,41.259983
212,228,ALU,Alula,Алула,Alula (ALU),SO,Somalia,50.8,11.966667
213,250,AMS,Amsterdam,Амстердам,Amsterdam (AMS),NL,Netherlands,4.8922222,52.3730556
214,278,ANV,Anvik,Энвик,Anvik (ANV),US,United States,-160.18889,62.647778
215,279,ANW,Ainsworth,Эйнсуорт,Ainsworth (ANW),US,United States,-99.86667,42.55
216,289,AOI,Ancona,Анкона,Ancona (AOI),IT,Italy,13.355723,43.60691
217,318,APY,Alto Parnaiba,Алту-Парнаиба,Alto Parnaiba (APY),BR,Brazil,-45.933334,-9.133333
218,331,ARC,Arctic Village,Арктик-Виллидж,Arctic Village (ARC),US,United States,-145.52444,68.1375
219,341,ARM,Armidale,Армидейл,Armidale (ARM),AU,Australia,151.61493,-30.532297
220,362,ASJ,Amami O Shima,Амами,Amami O Shima (ASJ),JP,Japan,129.70793,28.431522
221,405,AUC,Arauca,Араука,Arauca (AUC),CO,Colombia,-70.7425,7.071667
222,406,AUD,Augustus Downs,Огастус-Даунс,Augustus Downs (AUD),AU,Australia,139.88167,-18.506945
223,409,AUG,Augusta,Огаста,Augusta (AUG),US,United States,-69.79667,44.318054
224,350,ARW,Arad,Арад,Arad (ARW),RO,Romania,21.266666,46.183334
225,352,ARY,Ararat,Арарат,Ararat (ARY),AU,Australia,143.0,-37.316666
226,378,ATA,Anta,Уарас,Anta (ATA),PE,Peru,-77.6,-9.347222
227,8581,ATC,Arthur's Town,Артурс-Таун,Arthur's Town (ATC),BS,Bahamas,-75.67139,24.62861
228,383,ATG,Attock,Атток,Attock (ATG),PK,Pakistan,72.25,33.9
229,389,ATM,Altamira,Алтамира,Altamira (ATM),BR,Brazil,-52.216667,-3.2
230,394,ATR,Atar,Атар,Atar (ATR),MR,Mauritania,-13.046389,20.499443
231,396,ATT,Atmautluak,Атмаутлуак,Atmautluak (ATT),US,United States,-162.2675,60.866943
232,397,ATU,Attu Island,Атту,Attu Island (ATU),US,United States,173.17278,52.825832
233,399,ATW,Appleton,Аплтон,Appleton (ATW),US,United States,-88.50994,44.26011
234,400,ATX,Atbasar,Атбасар,Atbasar (ATX),KZ,Kazakhstan,68.4,51.88333
235,419,AUQ,Atuona,Хива-Оа,Atuona (AUQ),PF,French Polynesia,-139.00978,-9.769324
236,420,AUR,Aurillac,Орийак,Aurillac (AUR),FR,France,2.418056,44.8975
237,431,AVI,Ciego De Avila,Сьего-де-Авила,Ciego De Avila (AVI),CU,Cuba,-78.79139,22.025
238,895,BRZ,Borotou,Бороту,Borotou (BRZ),IT,Italy,-7.5,8.766667
239,901,BSF,Pohakuloa,Похакулоа,Pohakuloa (BSF),US,United States,-157.75,21.383333
240,963,BUS,Batumi,Батуми,Batumi (BUS),GE,Georgia,41.600555,41.610832
241,1000,BWM,Bowman,Боумен,Bowman (BWM),US,United States,-103.4,46.183334
242,1022,BXT,Bontang,Бонтанг,Bontang (BXT),ID,Indonesia,117.5,0.166667
243,1034,BYL,Bella Yella,Белла-Елла,Bella Yella (BYL),LR,Liberia,-10.0,7.366667
244,1045,BZA,Bonanza,Бонанса,Bonanza (BZA),NI,Nicaragua,-84.6,13.95
245,1091,CBD,Car Nicobar,Кар-Никобар,Car Nicobar (CBD),IN,India,92.816666,9.15
246,1092,CBE,Cumberland,Камберленд,Cumberland (CBE),US,United States,-78.76611,39.614445
247,1103,CBQ,Calabar,Калабар,Calabar (CBQ),NG,Nigeria,8.347415,4.96889
248,1109,CBW,Campo Mourao,Кампу-Моран,Campo Mourao (CBW),BR,Brazil,-52.356388,-24.001944
249,1130,CCT,Colonia Catriel,Колония-Катриэль,Colonia Catriel (CCT),AR,Argentina,-68.916664,-39.5
250,1149,CDP,Cuddapah,Кадапа,Cuddapah (CDP),IN,India,78.78333,14.516667
251,1154,CDV,Cordova,Кордова,Cordova (CDV),US,United States,-145.700553,60.5387163
252,683,BIG,Big Delta,Биг-Делта,Big Delta (BIG),US,United States,-145.73277,64.06778
253,696,BIT,Baitadi,Байтади,Baitadi (BIT),NP,Nepal,80.5,29.0
254,701,BIY,Bisho,Бишо,Bisho (BIY),ZA,South Africa,27.283333,-35.88333
255,706,BJD,Bakkafjordur,Баккафьордюр,Bakkafjordur (BJD),IS,Iceland,-14.75,66.066666
256,741,BKS,Bengkulu,Бенкулу,Bengkulu (BKS),ID,Indonesia,102.34349,-3.866159
257,760,BLN,Benalla,Беналла,Benalla (BLN),AU,Australia,145.98334,-36.55
258,770,BLX,Belluno,Беллуно,Belluno (BLX),IT,Italy,12.216667,46.15
259,803,BNG,Banning,Баннинг,Banning (BNG),US,United States,-116.86667,33.933334
260,805,BNK,Ballina,Баллина,Ballina (BNK),AU,Australia,153.5564,-28.837606
261,828,BOI,Boise,Бойсе,Boise (BOI),US,United States,-116.22193,43.569263
262,883,BRM,Barquisimeto,Баркисимето,Barquisimeto (BRM),VE,Venezuela,-69.35984,10.046267
263,904,BSI,Blairsville,Блэрсвилл,Blairsville (BSI),US,United States,-79.28333,40.45
264,924,BTD,Brunette Downs,Брунетт-Даунс,Brunette Downs (BTD),AU,Australia,135.91667,-18.666668
265,934,BTN,Bennettsville,Беннетсвилл,Bennettsville (BTN),US,United States,-79.683334,34.61667
266,1157,CDZ,Cadiz,Кадис,Cadiz (CDZ),ES,Spain,-6.3,36.533333
267,1183,CFB,Cabo Frio,Кабу-Фриу,Cabo Frio (CFB),BR,Brazil,-42.07861,-22.925
268,1204,CGD,Changde,Чандэ,Changde (CGD),CN,China,111.63886,28.924467
269,1205,CGE,Cambridge,Кембридж,Cambridge (CGE),US,United States,-76.083336,38.566666
270,1215,CGS,College Park,Колледж-Парк,College Park (CGS),US,United States,-84.45,33.666668
271,1245,CID,Cedar Rapids,Сидар-Рэпидс,Cedar Rapids (CID),US,United States,-91.7003,41.889423
272,1254,CIN,Carroll,Кэрролл,Carroll (CIN),US,United States,-94.86667,42.066666
273,1255,CIO,Concepcion,Консепсьон,Concepcion (CIO),PY,Paraguay,-57.41833,-23.434444
274,1293,CKT,Sarakhs,Серахс,Sarakhs (CKT),IR,Iran,61.07,36.488056
275,1298,CLA,Comilla,Комилла,Comilla (CLA),BD,Bangladesh,91.19222,23.4375
276,1321,CMC,Camocim,Камосин,Camocim (CMC),BR,Brazil,-40.833332,-2.916667
277,1361,CNT,Charata,Чарата,Charata (CNT),AR,Argentina,-61.233334,-27.216667
278,1369,COC,Concordia,Конкордия,Concordia (COC),AR,Argentina,-57.996387,-31.297222
279,1415,CQS,Costa Marques,Коста-Маркис,Costa Marques (CQS),BR,Brazil,-64.25,-12.416667
280,411,AUI,Aua Island,Ауа,Aua Island (AUI),PG,Papua New Guinea,143.075,-1.458333
281,456,AXL,Alexandria,Александрия-Стейшн,Alexandria (AXL),AU,Australia,136.66667,-19.083332
282,466,AYC,Ayacucho,Аякучо,Ayacucho (AYC),CO,Colombia,-73.61667,8.6
283,482,AYZ,Amityville,Амитивилл,Amityville (AYZ),US,United States,-73.416664,40.666668
284,495,BAF,Westfield,Уэстфилд,Westfield (BAF),US,United States,-72.75,42.13333
285,528,BBP,Bembridge,Бембридж,Bembridge (BBP),GB,United Kingdom,-1.083333,50.683334
286,536,BBY,Bambari,Бамбари,Bambari (BBY),CF,Central African Republic,20.649721,5.845833
287,568,BDE,Baudette,Бодетт,Baudette (BDE),US,United States,-94.60694,48.72278
288,586,BDW,Bedford Downs,Бедфорд-Даунс,Bedford Downs (BDW),AU,Australia,127.46667,-17.3
289,594,BEF,Bluefields,Блуфилдс,Bluefields (BEF),NI,Nicaragua,-83.76861,11.996944
290,599,BEK,Bareli,Барели,Bareli (BEK),IN,India,81.23333,26.216667
291,606,BET,Bethel,Бетел,Bethel (BET),US,United States,-161.7558333,60.7922222
292,617,BFF,Scottsbluff,Скотсблафф,Scottsbluff (BFF),US,United States,-103.60111,41.87528
293,625,BFS,Belfast,Белфаст,Belfast (BFS),GB,United Kingdom,-5.9301088,54.5972686
294,1161,CEE,Cherepovets,Череповец,Cherepovets (CEE),RU,Russia,38.066666,59.283333
295,1209,CGM,Camiguin,Камигин,Camiguin (CGM),PH,Philippines,124.71667,9.16667
296,1272,CJL,Chitral,Читрал,Chitral (CJL),PK,Pakistan,71.79444,35.886112
297,1362,CNU,Chanute,Шенут,Chanute (CNU),US,United States,-95.45,37.683334
298,1363,CNV,Canavieiras,Канавиейрас,Canavieiras (CNV),BR,Brazil,-38.983334,-15.666667
299,1386,COV,Covilha,Ковильян,Covilha (COV),PT,Portugal,-7.5,40.283333
300,1405,CPR,Casper,Каспер,Casper (CPR),US,United States,-106.4625,42.90861
301,1435,CRX,Corinth,Коринт,Corinth (CRX),US,United States,-88.6,34.9
302,1449,CSL,San Luis Obispo,Сан-Луис-Обиспо,San Luis Obispo (CSL),US,United States,-120.4713636,37.3457771
303,1451,CSO,Cochstedt,Кохштедт,Cochstedt (CSO),DE,Germany,11.416667,51.85
304,1482,CTU,Chengdu,Чэнду,Chengdu (CTU),CN,China,103.9568,30.581135
305,1523,CVR,Culver City,Калвер,Culver City (CVR),US,United States,-118.417,33.975
306,1524,CVT,Coventry,Ковентри,Coventry (CVT),GB,United Kingdom,-1.478611,52.369167
307,1536,CXA,Caicara Del Orinoco,Кайкара-дель-Ориноко,Caicara Del Orinoco (CXA),VE,Venezuela,-66.15,7.533333
308,440,AWB,Awaba,Аваба,Awaba (AWB),PG,Papua New Guinea,142.75,-8.016667
309,464,AXX,Angel Fire,Энджел-Файр,Angel Fire (AXX),US,United States,-105.28333,36.416668
310,487,AZO,Kalamazoo,Каламазу,Kalamazoo (AZO),US,United States,-85.55656,42.239964
311,492,BAA,Bialla,Биалла,Bialla (BAA),PG,Papua New Guinea,151.03334,-5.316667
312,505,BAP,Baibara,Байбара,Baibara (BAP),PG,Papua New Guinea,149.75,-10.333333
313,508,BAS,Balalae,Балалэ,Balalae (BAS),SB,Solomon Islands,155.88333,-6.983333
314,515,BBA,Balmaceda,Бальмаседа,Balmaceda (BBA),CL,Chile,-71.695,-45.916668
315,522,BBI,Bhubaneswar,Бхубанешвар,Bhubaneswar (BBI),IN,India,85.81738,20.252853
316,535,BBX,Blue Bell,Блю-Белл,Blue Bell (BBX),US,United States,-75.2675,40.136665
317,547,BCJ,Baca Grande,Бака-Гранде,Baca Grande (BCJ),US,United States,-106.0,39.0
318,569,BDF,Bradford,Брэдфорд,Bradford (BDF),US,United States,-89.65,41.183334
319,574,BDK,Bondoukou,Бондуку,Bondoukou (BDK),CI,Ivory Coast,-2.8,8.033333
320,590,BEA,Bereina,Берейна,Bereina (BEA),PG,Papua New Guinea,146.48334,-8.65
321,597,BEI,Beica,Бейка,Beica (BEI),ET,Ethiopia,34.533333,9.391667
322,10,AAK,Aranuka,Аранука,Aranuka (AAK),KI,Kiribati,173.58333,0.166667
323,19,AAU,Asau,Асау,Asau (AAU),WS,Samoa,-172.6,-13.458333
324,27,ABD,Abadan,Абадан,Abadan (ABD),IR,Iran,48.226597,30.363905
325,35,ABL,Ambler,Амблер,Ambler (ABL),US,United States,-157.84584,67.0875
326,45,ABV,Abuja,Абуджа,Abuja (ABV),NG,Nigeria,7.270447,9.004614
327,85,ADU,Ardabil,Ардебиль,Ardabil (ADU),IR,Iran,48.42125,38.323826
328,100,AET,Allakaket,Аллакакет,Allakaket (AET),US,United States,-152.65834,66.56167
329,111,AFS,Zarafshan,Зарафшан,Zarafshan (AFS),UZ,Uzbekistan,64.233055,41.61361
330,119,AGG,Angoram,Ангорам,Angoram (AGG),PG,Papua New Guinea,144.07388,-4.168611
331,127,AGO,Magnolia,Магнолия,Magnolia (AGO),US,United States,-93.23333,33.266666
332,187,AKD,Akola,Акола,Akola (AKD),IN,India,77.083336,20.666668
333,194,AKK,Akhiok,Акхиок,Akhiok (AKK),US,United States,-154.16667,56.944443
334,197,AKN,King Salmon,Кинг-Салмон,King Salmon (AKN),US,United States,-156.66902,58.68274
335,204,AKV,Akulivik,Акуливик,Akulivik (AKV),CA,Canada,-78.583336,60.733334
336,215,ALH,Albany,Олбани,Albany (ALH),AU,Australia,117.804,-34.944996
337,1423,CRI,Crooked Island,Крукед-Айленд,Crooked Island (CRI),BS,Bahamas,-74.15,22.75
338,1475,CTM,Chetumal,Четумаль,Chetumal (CTM),MX,Mexico,-88.333336,18.481943
339,1504,CUS,Columbus,Колумбус,Columbus (CUS),US,United States,-107.63333,31.833332
340,1514,CVF,Courchevel,Куршевель,Courchevel (CVF),FR,France,6.634722,45.396667
341,1520,CVM,Ciudad Victoria,Сьюдад-Виктория,Ciudad Victoria (CVM),MX,Mexico,-98.96528,23.713888
342,1539,CXI,Christmas Island,Кристмас,Christmas Island (CXI),KI,Kiribati,-157.45,1.9666670000000002
343,1540,CXJ,Caxias do Sul,Кашиас-ду-Сул,Caxias do Sul (CXJ),BR,Brazil,-51.183334,-29.166668
344,1559,CYS,Cheyenne,Шайенн,Cheyenne (CYS),US,United States,-104.8202462,41.1399814
345,1575,CZO,Chistochina,Чисточина,Chistochina (CZO),US,United States,-144.66667,62.566666
346,1584,DAA,Fort Belvoir,Форт-Бельвуар,Fort Belvoir (DAA),US,United States,-78.75,37.5
347,1589,DAG,Daggett,Даггетт,Daggett (DAG),US,United States,-117.333336,34.25
348,1590,DAH,Dathina,Датина,Dathina (DAH),YE,Yemen,46.13333,13.866667
349,1606,DBB,Dabaa City,Эль-Дабаа,Dabaa City (DBB),EG,Egypt,28.46139,30.924444
350,633,BGC,Braganca,Браганса,Braganca (BGC),PT,Portugal,-6.75,41.816666
351,645,BGP,Bongo,Бонго,Bongo (BGP),GA,Gabon,13.433333,-1.65
352,653,BGZ,Braga,Брага,Braga (BGZ),PT,Portugal,-8.433333,41.55
353,668,BHP,Bhojpur,Бходжпур,Bhojpur (BHP),NP,Nepal,87.05,27.183332
354,697,BIU,Bildudalur,Бильдюдалюр,Bildudalur (BIU),IS,Iceland,-23.983334,65.833336
355,714,BJM,Bujumbura,Бужумбура,Bujumbura (BJM),BI,Burundi,29.366667,-3.383333
356,754,BLH,Blythe,Блит,Blythe (BLH),US,United States,-114.71889,33.620834
357,787,BMP,Brampton Island,Брамптон,Brampton Island (BMP),AU,Australia,149.23334,-20.783333
358,794,BMX,Big Mountain,Биг-Маунтин,Big Mountain (BMX),US,United States,-155.25667,59.361942
359,819,BNY,Bellona,Беллона,Bellona (BNY),SB,Solomon Islands,159.81667,-11.3
360,820,BNZ,Banz,Банз,Banz (BNZ),PG,Papua New Guinea,144.61139,-5.808333
361,827,BOH,Bournemouth,Борнмут,Bournemouth (BOH),GB,United Kingdom,-1.832476,50.77827
362,853,BPI,Big Piney,Биг-Пайни,Big Piney (BPI),US,United States,-110.11667,42.533333
363,9368,BQJ,Batagay,Батагай,Batagay (BQJ),RU,Russia,134.641667,67.655
364,1549,CYB,Cayman Brac Island,Кайман-Брак,Cayman Brac Island (CYB),KY,Cayman Islands,-79.87941000000001,19.690191
365,1557,CYP,Calbayog,Калбайог,Calbayog (CYP),PH,Philippines,124.54305,12.075833
366,1581,CZX,Changzhou,Чанчжоу,Changzhou (CZX),CN,China,119.77976,31.914116
367,1591,DAJ,Dauan Island,Дауан-Айленд,Dauan Island (DAJ),AU,Australia,142.53334,-9.433333
368,1630,DDU,Dadu,Даду,Dadu (DDU),PK,Pakistan,67.75,26.75
369,8702,DFW,Dallas,Даллас,Dallas (DFW),US,United States,-96.769923,32.802955
370,1673,DIE,Antsiranana,Анциранана,Antsiranana (DIE),MG,Madagascar,49.2925,-12.346111
371,1676,DIK,Dickinson,Дикинсон,Dickinson (DIK),US,United States,-102.9,46.833332
372,1685,DIU,Diu,Диу,Diu (DIU),IN,India,70.916664,20.716667
373,1708,DLH,Duluth,Дулут,Duluth (DLH),US,United States,-92.1004852,46.7866719
374,1714,DLO,Dolomi,Доломи,Dolomi (DLO),US,United States,-132.05,55.122223
375,1723,DMN,Deming,Диминг,Deming (DMN),US,United States,-107.75,32.266666
376,1782,DRI,De Ridder,Де-Риддер,De Ridder (DRI),US,United States,-93.28333,30.85
377,1785,DRO,Durango,Дуранго,Durango (DRO),US,United States,-107.8800667,37.27528
378,951,BUF,Buffalo,Буффало,Buffalo (BUF),US,United States,-78.8783689,42.8864468
379,973,BVF,Bua,Буа,Bua (BVF),FJ,Fiji,178.5,-17.0
380,976,BVI,Birdsville,Бёрдсвилл,Birdsville (BVI),AU,Australia,139.34334,-25.898333
381,978,BVL,Baures,Баурес,Baures (BVL),BO,Bolivia,-63.583332,-13.583333
382,983,BVS,Breves,Бревис,Breves (BVS),BR,Brazil,-50.466667,-1.666667
383,987,BVY,Beverly,Беверли,Beverly (BVY),US,United States,-70.88333,42.55
384,991,BWC,Brawley,Броли,Brawley (BWC),US,United States,-115.51667,32.983334
385,1029,BYC,Yacuiba,Якуиба,Yacuiba (BYC),BO,Bolivia,-63.65,-21.95
386,1060,BZT,Brazoria,Бразория,Brazoria (BZT),US,United States,-95.566666,29.05
387,1066,CAC,Cascavel,Каскавел,Cascavel (CAC),BR,Brazil,-53.466667,-24.95
388,1069,CAF,Carauari,Карауари,Carauari (CAF),BR,Brazil,-66.916664,-4.9
389,1094,CBG,Cambridge,Кембридж,Cambridge (CBG),GB,United Kingdom,0.183333,52.2
390,1120,CCJ,Kozhikode,Кожикоде,Kozhikode (CCJ),IN,India,75.950584,11.14025
391,607,BEU,Bedourie,Бедури,Bedourie (BEU),AU,Australia,139.445,-24.23
392,608,BEV,Beer Sheba,Беэр-Шева,Beer Sheba (BEV),IL,Israel,34.8,31.25
393,622,BFP,Beaver Falls,Бивер-Фолс,Beaver Falls (BFP),US,United States,-80.4,40.766666
394,628,BFV,Buri Ram,Бурирам,Buri Ram (BFV),TH,Thailand,103.25528,15.226944
395,647,BGR,Bangor,Бангор,Bangor (BGR),US,United States,-68.82102,44.812298
396,722,BJV,Bodrum,Бодрум,Bodrum (BJV),TR,Turkey,27.66,37.25
397,749,BLB,Balboa,Бальбоа,Balboa (BLB),PA,Panama,-79.5575,8.973056
398,751,BLE,Borlange/Falun,Бурлэнге,Borlange/Falun (BLE),SE,Sweden,15.4363017,60.4856047
399,758,BLL,Billund,Биллунн,Billund (BLL),DK,Denmark,9.147874,55.747383
400,798,BNB,Boende,Боэнде,Boende (BNB),CD,Democratic Republic of the Congo,20.87,-0.233056
401,846,BPB,Boridi,Бориди,Boridi (BPB),PG,Papua New Guinea,147.53334,-9.133333
402,871,BQW,Balgo Hills,Балго-Хиллс,Balgo Hills (BQW),AU,Australia,127.8,-20.183332
403,881,BRK,Bourke,Бурк,Bourke (BRK),AU,Australia,145.93333,-30.083332
404,920,BSZ,Bartletts,Бартлетс,Bartletts (BSZ),US,United States,-157.35028,58.233612
405,237,AME,Alto Molocue,Алто-Молокуэ,Alto Molocue (AME),MZ,Mozambique,37.583332,-15.833333
406,243,AML,Puerto Armuellas,Пуэрто-Армуэльес,Puerto Armuellas (AML),PA,Panama,-82.86667,8.266667
407,258,ANA,Anaheim,Анахайм,Anaheim (ANA),US,United States,-117.933334,33.816666
408,262,ANE,Angers,Анже,Angers (ANE),FR,France,-0.563166,47.478419
409,266,ANI,Aniak,Аниак,Aniak (ANI),US,United States,-159.53697,61.574398
410,285,AOC,Altenburg,Альтенбург,Altenburg (AOC),DE,Germany,12.45,50.983334
411,335,ARG,Walnut Ridge,Уолнат-Ридж,Walnut Ridge (ARG),US,United States,-90.95,36.066666
412,357,ASE,Aspen,Аспен,Aspen (ASE),US,United States,-106.864685,39.219685
413,369,ASQ,Austin,Остин,Austin (ASQ),US,United States,-117.166664,39.466667
414,372,ASU,Asuncion,Асунсьон,Asuncion (ASU),PY,Paraguay,-57.513794,-25.241795
415,404,AUB,Itauba,Итауба,Itauba (AUB),BR,Brazil,-63.35,-5.766667
416,414,AUL,Aur Island,Аур,Aur Island (AUL),MH,Marshall Islands,171.16667,8.133333
417,425,AUX,Araguaina,Арагуаина,Araguaina (AUX),BR,Brazil,-48.2,-7.2
418,60,ACM,Arica,Арика,Arica (ACM),CO,Colombia,-71.833336,-2.0
419,8562,ADP,Ampara,Ампара,Ampara (ADP),LK,Sri Lanka,81.625275,7.336389
420,8541,AEE,Adareil,Адарейл,Adareil (AEE),SS,South Sudan,32.96044,10.0578853
421,107,AFL,Alta Floresta,Алта-Флореста,Alta Floresta (AFL),BR,Brazil,-56.104767,-9.872456
422,137,AGZ,Aggeneys,Аггенейс,Aggeneys (AGZ),ZA,South Africa,18.85,-29.05
423,146,AHO,Alghero,Альгеро,Alghero (AHO),IT,Italy,8.295891,40.630405
424,8590,AIY,Atlantic City,Атлантик-Сити,Atlantic City (AIY),US,United States,-74.45722,39.36
425,189,AKF,Kufrah,Куфра,Kufrah (AKF),LY,Libya,23.333332,24.2
426,211,ALD,Alerta,Алерта,Alerta (ALD),PE,Peru,-69.333336,-11.683333
427,223,ALP,Aleppo,Алеппо,Aleppo (ALP),SY,Syria,37.227074,36.185352
428,241,AMI,Mataram,Ломбок,Mataram (AMI),ID,Indonesia,116.10237,-8.563165
429,242,AMJ,Almenara,Алменара,Almenara (AMJ),BR,Brazil,-40.683334,-16.183332
430,260,ANC,Anchorage,Анкоридж,Anchorage (ANC),US,United States,-149.9002778,61.2180556
431,290,AOJ,Aomori,Аомори,Aomori (AOJ),JP,Japan,140.68922,40.738758
432,876,BRE,Bremen,Бремен,Bremen (BRE),DE,Germany,8.785352,53.05297
433,887,BRQ,Brno,Брно,Brno (BRQ),CZ,Czech Republic,16.6115347,49.1909804
434,931,BTK,Bratsk,Братск,Bratsk (BTK),RU,Russia,101.816666,56.36667
435,9706,BTZ,Betong,Бетонг,Betong (BTZ),TH,Thailand,101.0725,5.773056
436,954,BUI,Bokondini,Бокондини,Bokondini (BUI),ID,Indonesia,133.58333,-2.0
437,965,BUW,Baubau,Баубау,Baubau (BUW),ID,Indonesia,122.63333,-5.466667
438,969,BVB,Boa Vista,Боа-Виста,Boa Vista (BVB),BR,Brazil,-60.666668,2.833333
439,975,BVH,Vilhena,Вильена,Vilhena (BVH),BR,Brazil,-60.11667,-12.716667
440,1002,BWO,Balakovo,Балаково,Balakovo (BWO),RU,Russia,47.75,51.86667
441,1005,BWS,Blaine,Блейн,Blaine (BWS),US,United States,-122.833336,48.966667
442,1025,BXX,Borama,Борама,Borama (BXX),SO,Somalia,43.11667,9.966667
443,1027,BYA,Boundary,Баундари,Boundary (BYA),US,United States,-141.11444,64.076385
444,1047,BZC,Buzios,Армасан-дус-Бузиус,Buzios (BZC),BR,Brazil,-41.964443,-22.769444
445,1057,BZO,Bolzano,Больцано,Bolzano (BZO),IT,Italy,11.3580048,46.4967153
446,1789,DRU,Drummond,Драммонд,Drummond (DRU),US,United States,-113.15,46.666668
447,1791,DRY,Drysdale River,Драйсдэйл-Ривер,Drysdale River (DRY),AU,Australia,126.416664,-15.666667
448,1798,DSK,Dera Ismail Khan,Дера-Исмаил-Хан,Dera Ismail Khan (DSK),PK,Pakistan,70.9,31.916668
449,1828,DVP,Davenport Downs,Дэвенпорт-Даунс,Davenport Downs (DVP),AU,Australia,141.11667,-24.133333
450,1853,EAN,Wheatland,Уитленд,Wheatland (EAN),US,United States,-104.96667,42.05
451,1869,EBU,Saint Etienne,Сент-Этьен,Saint Etienne (EBU),FR,France,4.296944,45.54139
452,1879,EDB,Eldebba,Эд-Дебба,Eldebba (EDB),SD,Sudan,30.833332,18.283333
453,1881,EDE,Edenton,Идентон,Edenton (EDE),US,United States,-76.65,36.066666
454,1932,EKX,Elizabethtown,Элизабеттаун,Elizabethtown (EKX),US,United States,-85.92778,37.68889
455,1939,ELG,El Golea,Эль-Голеа,El Golea (ELG),DZ,Algeria,2.864722,30.5675
456,1977,ENH,Enshi,Эньши,Enshi (ENH),CN,China,109.48201,30.321934
457,2072,EWO,Ewo,Эво,Ewo (EWO),CG,Republic of the Congo,14.8,-0.883333
458,2074,EXM,Exmouth Gulf,Эксмут-Галф,Exmouth Gulf (EXM),AU,Australia,114.25,-22.25
459,921,BTA,Bertoua,Бертуа,Bertoua (BTA),CM,Cameroon,13.7275,4.540833
460,929,BTI,Barter Island,Бартер,Barter Island (BTI),US,United States,-143.57834,70.13472
461,950,BUE,Buenos Aires,Буэнос-Айрес,Buenos Aires (BUE),AR,Argentina,-58.3731613,-34.6084175
462,957,BUL,Bulolo,Булоло,Bulolo (BUL),PG,Papua New Guinea,146.64778,-7.189722
463,967,BUY,Bunbury,Банбери,Bunbury (BUY),AU,Australia,115.63333,-33.316666
464,999,BWL,Blackwell,Блэкуэлл,Blackwell (BWL),US,United States,-97.28333,36.8
465,8620,BXP,Biala Podlaska,Бяла-Подляска,Biala Podlaska (BXP),PL,Poland,23.11667,52.03333
466,1021,BXS,Borrego Springs,Боррего-Спрингс,Borrego Springs (BXS),US,United States,-116.32778,33.343334
467,1035,BYM,Bayamo,Баямо,Bayamo (BYM),CU,Cuba,-76.65,20.383333
468,1048,BZD,Balranald,Бэлреналд,Balranald (BZD),AU,Australia,143.61667,-34.61667
469,1049,BZE,Belize City,Белиз-Сити,Belize City (BZE),BZ,Belize,-88.186654,17.497713
470,1051,BZH,Bumi Hills,Буми-Хиллс,Bumi Hills (BZH),ZW,Zimbabwe,28.35,-16.816668
471,1056,BZN,Belgrade,Бозмен,Belgrade (BZN),US,United States,-111.16033,45.777687
472,1128,CCR,Concord,Конкорд,Concord (CCR),US,United States,-122.05556,37.988888
473,1131,CCU,Kolkata,Калькутта,Kolkata (CCU),IN,India,88.43931,22.64531
474,1135,CCY,Charles City,Чарльз-Сити,Charles City (CCY),US,United States,-92.683334,43.066666
475,1143,CDI,Cachoeiro Itapemirim,Кашуэйру-ди-Итапемирин,Cachoeiro Itapemirim (CDI),BR,Brazil,-41.186943,-20.836111
476,1197,CFS,Coffs Harbour,Кофс-Харбор,Coffs Harbour (CFS),AU,Australia,153.1153,-30.322863
477,1202,CGB,Cuiaba,Куяба,Cuiaba (CGB),BR,Brazil,-56.120266,-15.651725
478,1203,CGC,Cape Gloucester,Кейп-Глостер,Cape Gloucester (CGC),PG,Papua New Guinea,148.51584,-5.459167
479,1221,CHA,Chattanooga,Чаттануга,Chattanooga (CHA),US,United States,-85.3096801,35.0456297
480,1222,CHB,Chilas,Чилас,Chilas (CHB),PK,Pakistan,74.083336,35.416668
481,8592,CII,Aydin,Айдын,Aydin (CII),TR,Turkey,-112.312225,47.90278
482,1310,CLQ,Colima,Колима,Colima (CLQ),MX,Mexico,-103.65,19.3
483,1333,CMP,Santana Do Araguaia,Сантана-ду-Арагуая,Santana Do Araguaia (CMP),BR,Brazil,-36.35,-9.8
484,1339,CMV,Coromandel,Коромандел,Coromandel (CMV),NZ,New Zealand,175.66667,-37.0
485,1342,CMY,Sparta,Спарта,Sparta (CMY),US,United States,-90.77897,44.03347
486,436,AVP,Wilkes-Barre,Уилкс-Барре,Wilkes-Barre (AVP),US,United States,-75.8813075,41.2459149
487,481,AYW,Ayawasi,Аяваси,Ayawasi (AYW),ID,Indonesia,132.5,-1.2
488,494,BAE,Barcelonnette,Барселоннет,Barcelonnette (BAE),FR,France,6.666667,44.38333
489,516,BBB,Benson,Бенсон,Benson (BBB),US,United States,-95.6,45.316666
490,517,BBC,Bay City,Бэй-Сити,Bay City (BBC),US,United States,-95.96667,28.983334
491,575,BDL,Hartford,Хартфорд,Hartford (BDL),US,United States,-72.6847,41.92953
492,627,BFU,Bengbu,Бэнбу,Bengbu (BFU),CN,China,117.333336,32.95
493,673,BHU,Bhavnagar,Бхавнагар,Bhavnagar (BHU),IN,India,72.18444,21.755
494,686,BIJ,Biliau,Билиау,Biliau (BIJ),PG,Papua New Guinea,146.2,-5.583333
495,726,BKB,Bikaner,Биканер,Bikaner (BKB),IN,India,73.3,28.016666
496,729,BKE,Baker,Бейкер,Baker (BKE),US,United States,-117.81,44.838333
497,732,BKH,Kekaha,Кекаха,Kekaha (BKH),US,United States,-159.71666,21.966667
498,736,BKM,Bakalalan,Бакелалан,Bakalalan (BKM),MY,Malaysia,115.61667,3.966667
499,806,BNL,Barnwell,Барнуэлл,Barnwell (BNL),US,United States,-81.38333,33.25
500,330,ARB,Ann Arbor,Анн-Арбор,Ann Arbor (ARB),US,United States,-83.75,42.3
501,363,ASK,Yamoussoukro,Ямусукро,Yamoussoukro (ASK),CI,Ivory Coast,-5.283333,6.816667
502,377,ASZ,Asirim,Асирим,Asirim (ASZ),PG,Papua New Guinea,150.36667,-5.866667
503,384,ATH,Athens,Афины,Athens (ATH),GR,Greece,23.946486,37.93635
504,385,ATI,Artigas,Артигас,Artigas (ATI),UY,Uruguay,-56.50833,-30.4
505,413,AUK,Alakanuk,Алаканук,Alakanuk (AUK),US,United States,-164.61084,62.689167
506,9309,AUW,Wausau,Уосо,Wausau (AUW),US,United States,-89.623055,44.923332
507,428,AVA,An Shun,Аньшунь,An Shun (AVA),CN,China,105.87278,26.257221
508,438,AVX,Avalon,Авалон,Avalon (AVX),US,United States,-118.3277778,33.3408333
509,448,AWZ,Ahwaz,Ахваз,Ahwaz (AWZ),IR,Iran,48.74668,31.34292
510,449,AXA,The Valley,Валли,The Valley (AXA),AI,Anguilla,-63.066666,18.216667
511,475,AYP,Ayacucho,Аякучо,Ayacucho (AYP),PE,Peru,-74.24722,-13.197222
512,485,AZG,Apatzingan,Апатсинган,Apatzingan (AZG),MX,Mexico,-102.352776,19.068056
513,512,BAX,Barnaul,Барнаул,Barnaul (BAX),RU,Russia,83.547646,53.361088
514,1077,CAO,Clayton,Клейтон,Clayton (CAO),US,United States,-103.183334,36.45
515,1089,CBB,Cochabamba,Кочабамба,Cochabamba (CBB),BO,Bolivia,-66.178894,-17.413954
516,1102,CBP,Coimbra,Коимбра,Coimbra (CBP),PT,Portugal,-8.416667,40.2
517,1124,CCN,Chakcharan,Чагчаран,Chakcharan (CCN),AF,Afghanistan,65.26667,34.533333
518,1133,CCW,Cowell,Коуэлл,Cowell (CCW),AU,Australia,136.83333,-33.63333
519,1139,CDC,Cedar City,Сидар-Сити,Cedar City (CDC),US,United States,-113.09611,37.7025
520,1147,CDN,Camden,Камден,Camden (CDN),US,United States,-80.6,34.266666
521,1156,CDY,Cagayan De Sulu,Мапун,Cagayan De Sulu (CDY),PH,Philippines,118.495,7.013611
522,1198,CFT,Clifton,Клифтон,Clifton (CFT),US,United States,-109.3,33.05
523,1216,CGT,Chinguitti,Шингетти,Chinguitti (CGT),MR,Mauritania,-12.366667,20.45
524,1225,CHG,Chaoyang,Чаоян,Chaoyang (CHG),CN,China,120.4372,41.545082
525,8675,CHS,Charleston,Чарлстон,Charleston (CHS),US,United States,-80.037155,32.884354
526,1241,CHX,Changuinola,Чангинола,Changuinola (CHX),PA,Panama,-82.45,9.45
527,1242,CHY,Choiseul Bay,Шуазёль-Бей,Choiseul Bay (CHY),SB,Solomon Islands,156.39856,-6.713787
528,11,AAL,Aalborg,Ольборг,Aalborg (AAL),DK,Denmark,9.917771,57.028811
529,61,ACN,Acuna,Сьюдад-Акунья,Acuna (ACN),MX,Mexico,-100.916664,29.3
530,65,ACT,Waco,Уэйко,Waco (ACT),US,United States,-97.1466695,31.549333
531,72,ADD,Addis Ababa,Аддис-Абеба,Addis Ababa (ADD),ET,Ethiopia,38.7959,8.983759
532,104,AFA,San Rafael,Сан-Рафаэль,San Rafael (AFA),AR,Argentina,-68.40056,-34.58917
533,106,AFI,Amalfi,Амальфи,Amalfi (AFI),CO,Colombia,-75.066666,6.916667
534,135,AGW,Agnew,Агню,Agnew (AGW),AU,Australia,142.15,-12.15
535,158,AIG,Yalinga,Ялинга,Yalinga (AIG),CF,Central African Republic,23.25,6.516667
536,164,AIN,Wainwright,Уэйнрайт,Wainwright (AIN),US,United States,-160.03334,70.63333
537,165,AIO,Atlantic,Атлантик,Atlantic (AIO),US,United States,-95.01667,41.4
538,244,AMM,Amman,Амман,Amman (AMM),JO,Jordan,35.98932,31.722534
539,259,ANB,Anniston,Аннистон,Anniston (ANB),US,United States,-85.8316318,33.6598257
540,296,AOS,Amook,Амук,Amook (AOS),US,United States,-153.83333,57.466667
541,300,APC,Napa,Напа,Napa (APC),US,United States,-122.28,38.212223
542,2079,EYS,Eliye Springs,Элие-Спрингс,Eliye Springs (EYS),KE,Kenya,35.966667,3.25
543,2096,FAR,Fargo,Фарго,Fargo (FAR),US,United States,-96.82551,46.91953
544,2102,FBD,Faizabad,Файзабад,Faizabad (FBD),AF,Afghanistan,70.566666,37.1
545,2115,FDH,Friedrichshafen,Фридрихсхафен,Friedrichshafen (FDH),DE,Germany,9.523482,47.672775
546,2140,FGR,Fuengirola,Фуэнхирола,Fuengirola (FGR),ES,Spain,-4.633333,36.533333
547,2154,FJR,Al-fujairah,Эль-Фуджайра,Al-fujairah (FJR),AE,United Arab Emirates,56.330555,25.109444
548,2163,FLB,Floriano,Флориану,Floriano (FLB),BR,Brazil,-43.033333,-6.8
549,2172,FLN,Florianopolis,Флорианополис,Florianopolis (FLN),BR,Brazil,-48.5452,-27.664446
550,2179,FLW,Flores Island (Azores),Флориш,Flores Island (Azores) (FLW),PT,Portugal,-31.15,39.466667
551,2184,FMG,Flamingo,Фламинго,Flamingo (FMG),CR,Costa Rica,-85.78333,10.416667
552,9046,FNU,Oristano,Ористано,Oristano (FNU),IT,Italy,15.62841,40.082905
553,2233,FRM,Fairmont,Фэрмонт,Fairmont (FRM),US,United States,-94.423615,43.64722
554,2279,FXM,Flaxman Island,Флаксман,Flaxman Island (FXM),US,United States,-146.0,70.2
555,1072,CAI,Cairo,Каир,Cairo (CAI),EG,Egypt,31.40647,30.120106
556,1095,CBH,Béchar,Бешар,Béchar (CBH),DZ,Algeria,-2.259722,31.647778
557,1113,CCA,Fort Chaffee,Форт-Чаффи,Fort Chaffee (CCA),US,United States,-94.3,35.316666
558,1137,CDA,Cooinda,Куинда,Cooinda (CDA),AU,Australia,132.5225,-12.905278
559,1142,CDH,Camden,Камден,Camden (CDH),US,United States,-92.833336,33.583332
560,1148,CDO,Cradock,Крадок,Cradock (CDO),ZA,South Africa,25.6,-32.13333
561,1163,CEG,Chester,Честер,Chester (CEG),GB,United Kingdom,-2.916667,53.166668
562,1166,CEK,Chelyabinsk,Челябинск,Chelyabinsk (CEK),RU,Russia,61.51235,55.297504
563,1170,CEO,Waco Kungo,Ваку-Кунго,Waco Kungo (CEO),AO,Angola,124.73055,9.308333
564,1234,CHP,Circle Hot Springs,Сёркл-Хот-Спрингс,Circle Hot Springs (CHP),US,United States,-144.58333,65.46667
565,1236,CHR,Chateauroux,Шатору,Chateauroux (CHR),FR,France,1.7,46.816666
566,1246,CIE,Collie,Колли,Collie (CIE),AU,Australia,116.13333,-33.36667
567,1248,CIG,Craig,Крейг,Craig (CIG),US,United States,-107.525,40.495556
568,1249,CIH,Changzhi,Чанчжи,Changzhi (CIH),CN,China,113.12158,36.24588
569,1384,COT,Cotulla,Котулла,Cotulla (COT),US,United States,-99.23333,28.433332
570,1388,COX,Congo Town,Конго-Таун,Congo Town (COX),BS,Bahamas,-77.583336,24.15
571,1390,COZ,Constanza,Констанса,Constanza (COZ),DO,Dominican Republic,-70.71667,18.9
572,1447,CSJ,Cape St Jacques,Вунгтау,Cape St Jacques (CSJ),VN,Vietnam,111.0,10.033333
573,1454,CSR,Casuarito,Касуарито,Casuarito (CSR),CO,Colombia,-68.13333,5.833333
574,1455,CSS,Cassilandia,Касиландия,Cassilandia (CSS),BR,Brazil,-51.983334,-18.983334
575,1456,CST,Castaway,Кастэвей,Castaway (CST),FJ,Fiji,177.5,-17.5
576,1467,CTE,Carti,Карти,Carti (CTE),PA,Panama,-80.833336,8.833333
577,1481,CTT,Le Castellet,Ле-Кастелле,Le Castellet (CTT),FR,France,5.783333,43.25
578,8698,CXB,Coxs Bazar,Кокс-Базар,Coxs Bazar (CXB),BD,Bangladesh,91.96667,21.45
579,8671,CYW,Celaya,Селая,Celaya (CYW),MX,Mexico,-100.9,20.55
580,1564,CZA,Chichen Itza,Чичен-Ица,Chichen Itza (CZA),MX,Mexico,-88.566666,20.666668
581,1593,DAM,Damascus,Дамаск,Damascus (DAM),SY,Syria,36.51249,33.41117
582,534,BBW,Broken Bow,Брокен-Боу,Broken Bow (BBW),US,United States,-99.63333,41.4
583,550,BCM,Bacau,Бакэу,Bacau (BCM),RO,Romania,26.881945,46.59861
584,552,BCO,Jinka,Джинка,Jinka (BCO),ET,Ethiopia,36.55,5.783333
585,592,BED,Bedford,Бедфорд,Bedford (BED),US,United States,-71.29,42.470833
586,603,BEQ,Bury St Edmunds,Бери-Сент-Эдмундс,Bury St Edmunds (BEQ),GB,United Kingdom,0.766667,52.35
587,614,BFC,Bloomfield,Блумфилд,Bloomfield (BFC),AU,Australia,145.33333,-15.9
588,9371,BFJ,Bijie,Бицзе,Bijie (BFJ),CN,China,105.3,27.3
589,649,BGU,Bangassou,Бангасу,Bangassou (BGU),CF,Central African Republic,22.784445,4.786667
590,662,BHJ,Bhuj,Бхудж,Bhuj (BHJ),IN,India,69.670555,23.2875
591,687,BIK,Biak,Биак,Biak (BIK),ID,Indonesia,136.10582,-1.191919
592,9734,BKN,Balkanabat,Балканабад,Balkanabat (BKN),TM,Turkmenistan,54.362778,39.481389
593,764,BLR,Bengaluru,Бангалор,Bengaluru (BLR),IN,India,77.70556,13.198889
594,769,BLW,Waimanalo,Уэйманало,Waimanalo (BLW),US,United States,-157.7,21.333332
595,784,BMM,Bitam,Битам,Bitam (BMM),GA,Gabon,11.490833,2.075833
596,796,BMZ,Bamu,Баму,Bamu (BMZ),PG,Papua New Guinea,143.23334,-7.833333
597,1252,CIL,Council,Каунсил,Council (CIL),US,United States,-163.73334,64.90833
598,1261,CIV,Chomley,Чомли,Chomley (CIV),US,United States,-132.21666,55.216667
599,1263,CIX,Chiclayo,Чиклайо,Chiclayo (CIX),PE,Peru,-79.83222,-6.789722
600,1264,CIY,Comiso,Комизо,Comiso (CIY),IT,Italy,14.606944,36.99167
601,1274,CJN,El Cajon,Эль-Кахон,El Cajon (CJN),US,United States,-116.96667,32.8
602,1280,CKC,Cherkassy,Черкассы,Cherkassy (CKC),UA,Ukraine,32.0,49.416668
603,1287,CKL,Chkalovsky,Чкаловский,Chkalovsky (CKL),RU,Russia,38.051945,55.86667
604,1295,CKX,Chicken,Чикен,Chicken (CKX),US,United States,-141.94917,64.06778
605,1300,CLE,Cleveland,Кливленд,Cleveland (CLE),US,United States,-81.6954088,41.4994954
606,1317,CLY,Calvi,Кальви,Calvi (CLY),FR,France,8.791667,42.52778
607,1320,CMB,Colombo,Коломбо,Colombo (CMB),LK,Sri Lanka,79.848358,6.927468
608,1328,CMJ,Chi Mei,Чимэй,Chi Mei (CMJ),TW,Taiwan,119.416664,23.25
609,1331,CMM,Carmelita,Кармелита,Carmelita (CMM),GT,Guatemala,-90.05333,17.458332
610,1348,CNE,Canon City,Каньон-Сити,Canon City (CNE),US,United States,-105.23333,38.45
611,836,BOQ,Boku,Боку,Boku (BOQ),PG,Papua New Guinea,155.35,-6.533333
612,839,BOU,Bourges,Бурж,Bourges (BOU),FR,France,2.416667,47.15
613,840,BOV,Boang,Боанг,Boang (BOV),PG,Papua New Guinea,153.33333,-3.366667
614,844,BOZ,Bozoum,Бозум,Bozoum (BOZ),CF,Central African Republic,16.583332,6.416667
615,847,BPC,Bamenda,Баменда,Bamenda (BPC),CM,Cameroon,10.15,5.916667
616,872,BRA,Barreiras,Баррейрас,Barreiras (BRA),BR,Brazil,-45.00833,-12.073056
617,873,BRB,Barreirinhas,Баррейриньяс,Barreirinhas (BRB),BR,Brazil,-57.11111,-2.910626
618,886,BRP,Biaru,Биару,Biaru (BRP),PG,Papua New Guinea,146.7,-7.533333
619,892,BRV,Bremerhaven,Бремерхафен,Bremerhaven (BRV),DE,Germany,8.916667,53.75
620,912,BSR,Basra,Басра,Basra (BSR),IQ,Iraq,47.79139,30.555555
621,930,BTJ,Banda Aceh,Банда-Ачех,Banda Aceh (BTJ),ID,Indonesia,95.41833,5.518021
622,949,BUD,Budapest,Будапешт,Budapest (BUD),HU,Hungary,19.0407578,47.4984056
623,961,BUP,Bhatinda,Бхатинда,Bhatinda (BUP),IN,India,74.96667,30.166668
624,1003,BWP,Bewani,Бевани,Bewani (BWP),PG,Papua New Guinea,141.15,-3.016667
625,1608,DBM,Debra Marcos,Дэбрэ-Маркос,Debra Marcos (DBM),ET,Ethiopia,37.743057,10.319444
626,1613,DBS,Dubois,Дюбуа,Dubois (DBS),US,United States,-112.23333,44.166668
627,1618,DCI,Decimomannu,Дечимоманну,Decimomannu (DCI),IT,Italy,8.966667,39.35
628,1619,DCK,Dahl Creek,Дал-Крик,Dahl Creek (DCK),US,United States,-156.9,66.95
629,1644,DES,Desroches,Дерош,Desroches (DES),SC,Seychelles,53.683334,-5.683333
630,1710,DLK,Dulkaninna,Далканинна,Dulkaninna (DLK),AU,Australia,139.46666,-29.016666
631,1712,DLM,Dalaman,Даламан,Dalaman (DLM),TR,Turkey,28.783333,36.716667
632,1718,DLY,Dillons Bay,Диллонс-Бей,Dillons Bay (DLY),VU,Vanuatu,169.15,-18.7
633,1735,DNM,Denham,Денем,Denham (DNM),AU,Australia,113.53333,-25.916668
634,1742,DNU,Dinangat,Динангат,Dinangat (DNU),PG,Papua New Guinea,146.66667,-6.15
635,1764,DOV,Dover-Cheswold,Довер-Чесволд,Dover-Cheswold (DOV),US,United States,-75.464165,39.128613
636,1816,DUG,Douglas,Дуглас,Douglas (DUG),US,United States,-109.5453447,31.3445471
637,1817,DUJ,Du Bois,Дубойс,Du Bois (DUJ),US,United States,-78.89889,41.178333
638,1834,DXD,Dixie,Дикси,Dixie (DXD),AU,Australia,143.66667,-15.166667
639,1844,DZI,Codazzi,Агустин-Кодасси,Codazzi (DZI),CO,Colombia,-73.25,10.016667
640,1866,EBN,Ebadon,Эбадон,Ebadon (EBN),MH,Marshall Islands,166.8,9.333333
641,1911,EHL,El Bolson,Эль-Больсон,El Bolson (EHL),AR,Argentina,-71.75,-42.0
642,1915,EIB,Eisenach,Айзенах,Eisenach (EIB),DE,Germany,10.483333,50.983334
643,1934,ELB,El Banco,Эль-Банко,El Banco (ELB),CO,Colombia,-73.97417,9.048889
644,1966,EMN,Nema,Нема,Nema (EMN),MR,Mauritania,-7.283333,16.6
645,1974,ENB,Eneabba West,Энибба,Eneabba West (ENB),AU,Australia,114.98333,-30.083332
646,1978,ENI,El Nido,Эль-Нидо,El Nido (ENI),PH,Philippines,119.41278,11.205556
647,2004,EPU,Parnu,Пярну,Parnu (EPU),EE,Estonia,24.472778,58.418888
648,2051,EUM,Neumuenster,Ноймюнстер,Neumuenster (EUM),DE,Germany,9.966667,54.066666
649,2068,EWE,Ewer,Эвер,Ewer (EWE),ID,Indonesia,138.08333,-5.483333
650,2080,EYW,Key West,Ки-Уэст,Key West (EYW),US,United States,-81.7825914,24.5557025
651,8756,FBG,Fort Bragg,Форт-Брагг,Fort Bragg (FBG),US,United States,-79.01667,35.166668
652,2307,GAV,Gag Island,Гаг,Gag Island (GAV),ID,Indonesia,130.88333,-26.0
653,2314,GBC,Gasuke,Гасуке,Gasuke (GBC),PG,Papua New Guinea,141.73334,-6.1
654,2325,GBN,San Giovanni Rotondo,Сан-Джованни-Ротондо,San Giovanni Rotondo (GBN),IT,Italy,15.730556,41.701668
655,2326,GBP,Gamboola,Гамбула,Gamboola (GBP),AU,Australia,143.66667,-16.55
656,2361,GEC,Gecitkale,Гечиткале,Gecitkale (GEC),CY,Cyprus,33.716667,35.233334
657,2370,GER,Nueva Gerona,Нуэва-Херона,Nueva Gerona (GER),CU,Cuba,-82.78,21.8375
658,2376,GFB,Togiak Fish,Тогиак-Фиш,Togiak Fish (GFB),US,United States,-160.05,59.016666
659,2379,GFF,Griffith,Гриффит,Griffith (GFF),AU,Australia,146.0627,-34.255432
660,2380,GFK,Grand Forks,Гранд-Форкс,Grand Forks (GFK),US,United States,-97.17587,47.9488
661,2399,GHC,Great Harbour,Грейт-Харбор,Great Harbour (GHC),BS,Bahamas,-77.84028,25.738056
662,2402,GHM,Centerville,Сентервилл,Centerville (GHM),US,United States,-87.46667,35.783333
663,2403,GHN,Guanghan,Гуанхань,Guanghan (GHN),CN,China,106.65,30.466667
664,9735,GKK,Kooddoo,Кудду,Kooddoo (GKK),MV,Maldives,73.433056,0.730833
665,2433,GLD,Goodland,Гудленд,Goodland (GLD),US,United States,-101.69945,39.370277
666,1256,CIP,Chipata,Чипата,Chipata (CIP),ZM,Zambia,32.587223,-13.556944
667,1258,CIR,Cairo,Кайро,Cairo (CIR),US,United States,-89.183334,37.0
668,1270,CJH,Chilko Lake,Чилко-Лейк,Chilko Lake (CJH),CA,Canada,-124.083336,51.333332
669,1286,CKK,Cherokee,Чероки,Cherokee (CKK),US,United States,-91.86667,36.5
670,1327,CMI,Champaign,Шампейн,Champaign (CMI),US,United States,-88.26905,40.039665
671,1329,CMK,Club Makokola,Клаб-Макокола,Club Makokola (CMK),MW,Malawi,35.05,-14.3
672,1375,COK,Kochi,Кочин,Kochi (COK),IN,India,76.39053,10.155644
673,1376,COL,Isle Of Coll,Колл,Isle Of Coll (COL),GB,United Kingdom,-6.616667,56.61667
674,1377,COM,Coleman,Колмен,Coleman (COM),US,United States,-99.433334,31.833332
675,1404,CPQ,Campinas,Кампинас,Campinas (CPQ),BR,Brazil,-47.111595,-22.856462
676,1426,CRO,Corcoran,Коркоран,Corcoran (CRO),US,United States,-119.55,36.1
677,1446,CSI,Casino,Казино,Casino (CSI),AU,Australia,153.05833,-28.883333
678,1499,CUN,Cancun,Канкун,Cancun (CUN),MX,Mexico,-86.874435,21.040457
679,1506,CUU,Chihuahua,Чиуауа,Chihuahua (CUU),MX,Mexico,-105.96952,28.704048
680,8539,APG,Aberdeen,Абердин,Aberdeen (APG),US,United States,-76.166664,39.5
681,319,APZ,Zapala,Сапала,Zapala (APZ),AR,Argentina,-70.083336,-38.916668
682,351,ARX,Neptune,Нептьюн,Neptune (ARX),US,United States,-74.1,40.216667
683,355,ASC,Ascension,Асенсьон-де-Гуарайос,Ascension (ASC),BO,Bolivia,-63.15,-15.916667
684,395,ATS,Artesia,Артижа,Artesia (ATS),US,United States,-104.46694,32.84833
685,422,AUT,Atauro,Атауро,Atauro (AUT),ID,Indonesia,125.583336,-8.216667
686,461,AXT,Akita,Акита,Akita (AXT),JP,Japan,140.22015,39.61177
687,483,AZB,Amazon Bay,Амазон-Бэй,Amazon Bay (AZB),PG,Papua New Guinea,148.81667,-10.15
688,519,BBF,Burlington,Берлингтон,Burlington (BBF),US,United States,-71.183334,42.5
689,554,BCQ,Brack,Брак,Brack (BCQ),LY,Libya,14.216667,27.683332
690,581,BDR,Bridgeport,Бриджпорт,Bridgeport (BDR),US,United States,-73.12444,41.164165
691,583,BDT,Gbadolite,Гбадолите,Gbadolite (BDT),CD,Democratic Republic of the Congo,22.45,4.083333
692,600,BEL,Belem,Белен,Belem (BEL),BR,Brazil,-48.480003,-1.389865
693,637,BGG,Bingol,Бингёль,Bingol (BGG),TR,Turkey,38.861111,40.5925
694,1595,DAO,Dabo,Дабо,Dabo (DAO),PG,Papua New Guinea,147.84944,-8.433056
695,1596,DAP,Gokuleshwar,Гокулешвар,Gokuleshwar (DAP),NP,Nepal,80.5,29.666668
696,1621,DCR,Decatur,Декейтер,Decatur (DCR),US,United States,-84.933334,40.833332
697,9419,DDD,Kudahuvadhoo,Кудахуваду,Kudahuvadhoo (DDD),MV,Maldives,72.89476,2.67054
698,1632,DEB,Debrecen,Дебрецен,Debrecen (DEB),HU,Hungary,21.7,47.55
699,1639,DEM,Dembidollo,Дембидолло,Dembidollo (DEM),ET,Ethiopia,34.88333,8.571111
700,1643,DER,Derim,Дерим,Derim (DER),PG,Papua New Guinea,147.08333,-6.1
701,1656,DGM,Dongguan,Донггуан,Dongguan (DGM),LK,Sri Lanka,113.74,23.03
702,8707,DHB,Deer Harbor,Дир-Харбор,Deer Harbor (DHB),US,United States,-123.00596,48.618397
703,1677,DIL,Dili,Дили,Dili (DIL),TL,East Timor,125.525,-8.549616
704,1678,DIM,Dimbokro,Димбокро,Dimbokro (DIM),CI,Ivory Coast,-4.766667,6.75
705,1682,DIQ,Divinopolis,Дивинополис,Divinopolis (DIQ),BR,Brazil,-44.869446,-20.181389
706,1701,DKS,Dikson,Диксон,Dikson (DKS),RU,Russia,80.36667,73.51667
707,1722,DMM,Dammam,Даммам,Dammam (DMM),SA,Saudi Arabia,49.79778,26.471111
708,832,BOM,Mumbai,Мумбаи,Mumbai (BOM),IN,India,72.87497,19.095509
709,8627,BPO,Bo'ao,Боао,Bo'ao (BPO),CN,China,113.06413,35.17263
710,902,BSG,Bata,Бата,Bata (BSG),GQ,Equatorial Guinea,9.802222,1.9066670000000001
711,909,BSO,Basco,Баско,Basco (BSO),PH,Philippines,121.977776,20.453056
712,927,BTG,Batangafo,Батангафо,Batangafo (BTG),CF,Central African Republic,18.333332,7.416667
713,938,BTR,Baton Rouge,Батон-Руж,Baton Rouge (BTR),US,United States,-91.1403196,30.4582829
714,943,BTW,Batu Licin,Бату-Личин,Batu Licin (BTW),ID,Indonesia,116.0,-3.0
715,944,BTX,Betoota,Бетута,Betoota (BTX),AU,Australia,140.73334,-25.7
716,946,BUA,Buka,Бука,Buka (BUA),PG,Papua New Guinea,154.67288,-5.422443
717,979,BVM,Belmonte,Белмонти,Belmonte (BVM),BR,Brazil,-38.916668,-15.833333
718,992,BWD,Brownwood,Браунвуд,Brownwood (BWD),US,United States,-98.956665,31.794722
719,8670,BWW,Cayo Las Brujas,Кайо-Лас-Брухас,Cayo Las Brujas (BWW),CU,Cuba,-79.14103,22.6101725
720,1007,BXA,Bogalusa,Богальюза,Bogalusa (BXA),US,United States,-89.88333,30.933332
721,1010,BXD,Bade,Баде,Bade (BXD),ID,Indonesia,139.5,-7.166667
722,1350,CNH,Claremont,Клермонт,Claremont (CNH),US,United States,-72.333336,43.38333
723,1398,CPH,Copenhagen,Копенгаген,Copenhagen (CPH),DK,Denmark,12.583046,55.693403
724,1407,CPU,Cururupu,Курурупу,Cururupu (CPU),BR,Brazil,-44.86667,-1.8
725,1413,CQM,Ciudad Real,Сьюдад-Реаль,Ciudad Real (CQM),ES,Spain,-3.9272629,38.9860963
726,1477,CTO,Calverton,Калвертон,Calverton (CTO),US,United States,-77.683334,38.63333
727,1489,CUD,Caloundra,Калундра,Caloundra (CUD),AU,Australia,153.15,-26.8
728,1526,CWB,Curitiba,Куритиба,Curitiba (CWB),BR,Brazil,-49.176544,-25.5322
729,1561,CYU,Cuyo,Куйо,Cuyo (CYU),PH,Philippines,121.0,10.883333
730,1610,DBO,Dubbo,Даббо,Dubbo (DBO),AU,Australia,148.56956,-32.218822
731,1614,DBT,Debra Tabor,Дебра-Табор,Debra Tabor (DBT),ET,Ethiopia,38.025276,11.968056
732,1638,DEL,Delhi,Дели,Delhi (DEL),IN,India,77.10079,28.556555
733,1646,DFI,Defiance,Дефайанс,Defiance (DFI),US,United States,-84.36667,41.283333
734,1655,DGK,Dugong,Дугонг,Dugong (DGK),MZ,Mozambique,120.717117,17.477816
735,1684,DIS,Loubomo,Лубомо,Loubomo (DIS),CG,Republic of the Congo,12.661389,-4.205556
736,1009,BXC,Boxborough,Боксборо,Boxborough (BXC),US,United States,-71.53333,42.483334
737,1028,BYB,Dibaa,Дибаа,Dibaa (BYB),OM,Oman,56.25,25.583332
738,1042,BYU,Bayreuth,Байройт,Bayreuth (BYU),DE,Germany,11.64,49.985558
739,1043,BYW,Blakely Island,Блейкли,Blakely Island (BYW),US,United States,-123.0,48.5
740,1053,BZK,Bryansk,Брянск,Bryansk (BZK),RU,Russia,34.333332,53.266666
741,9692,BZX,Bazhong,Бачжун,Bazhong (BZX),CN,China,106.748,31.868
742,1123,CCM,Criciuma,Крисиума,Criciuma (CCM),BR,Brazil,-49.36667,-28.7
743,1158,CEB,Cebu City,Себу,Cebu City (CEB),PH,Philippines,123.98278,10.313333
744,1167,CEL,Cape Eleuthera,Кейп-Эльютера,Cape Eleuthera (CEL),BS,Bahamas,-76.33083,25.28389
745,1199,CFU,Kerkyra,Корфу,Kerkyra (CFU),GR,Greece,19.914644,39.60784
746,1219,CGY,Cagayan De Oro,Кагаян-де-Оро,Cagayan De Oro (CGY),PH,Philippines,124.61157,8.407744
747,1238,CHU,Chuathbaluk,Чуатбалук,Chuathbaluk (CHU),US,United States,-159.23882,61.583435
748,1250,CIJ,Cobija,Кобиха,Cobija (CIJ),BO,Bolivia,-68.75278,-11.026389
749,1257,CIQ,Chiquimula,Чикимула,Chiquimula (CIQ),GT,Guatemala,-89.61667,14.85
750,1294,CKV,Clarksville,Кларксвилл,Clarksville (CKV),US,United States,-87.414444,36.620834
751,2439,GLK,Galcaio,Галкайо,Galcaio (GLK),SO,Somalia,47.433334,6.766667
752,2443,GLO,Gloucester,Глостер,Gloucester (GLO),GB,United Kingdom,-2.233333,51.88333
753,2501,GPB,Guarapuava,Гуарапуава,Guarapuava (GPB),BR,Brazil,-51.5,-25.333332
754,2504,GPN,Garden Point,Гарден-Пойнт,Garden Point (GPN),AU,Australia,130.01666,-11.766667
755,2508,GPZ,Grand Rapids,Гранд-Рэпидс,Grand Rapids (GPZ),US,United States,-93.51111,47.214443
756,2520,GRM,Grand Marais,Гранд-Марей,Grand Marais (GRM),US,United States,-85.98333,46.666668
757,2528,GRV,Groznyy,Грозный,Groznyy (GRV),RU,Russia,45.75,43.333332
758,2538,GSL,Taltheilei Narrows,Талтейлей-Нэрроуз,Taltheilei Narrows (GSL),CA,Canada,-111.54444,62.5975
759,2539,GSM,Qeshm Island,Кешм,Qeshm Island (GSM),IR,Iran,55.905277,26.757778
760,2546,GST,Gustavus,Густавус,Gustavus (GST),US,United States,-135.7369444,58.4133333
761,2547,GSU,Gedaref,Гедареф,Gedaref (GSU),SD,Sudan,35.466667,14.033333
762,2586,GVI,Green River,Грин-Ривер,Green River (GVI),PG,Papua New Guinea,141.15,-3.966667
763,2588,GVP,Greenvale,Гринвейл,Greenvale (GVP),AU,Australia,144.61667,-15.783333
764,2621,GZO,Gizo,Гизо,Gizo (GZO),SB,Solomon Islands,156.83333,-8.116667
765,2105,FBM,Lubumbashi,Лубумбаши,Lubumbashi (FBM),CD,Democratic Republic of the Congo,27.529167,-11.590833
766,2114,FDF,Fort De France,Фор-де-Франс,Fort De France (FDF),MQ,Martinique,-60.999947,14.596061
767,2119,FDY,Findlay,Финдли,Findlay (FDY),US,United States,-84.53333,41.033333
768,2129,FES,San Fernando,Сан-Фернандо,San Fernando (FES),ES,Spain,-6.183333,36.466667
769,2136,FFT,Frankfort,Франкфорт,Frankfort (FFT),US,United States,-84.905,38.18222
770,2174,FLP,Flippin,Флиппин,Flippin (FLP),US,United States,-92.583336,36.3
771,2207,FOD,Fort Dodge,Форт-Додж,Fort Dodge (FOD),US,United States,-94.18972,42.5525
772,2225,FRC,Franca,Франка,Franca (FRC),BR,Brazil,-47.4375,-20.551945
773,2235,FRO,Floro,Флурё,Floro (FRO),NO,Norway,5.024577,61.58643
774,2261,FTU,Fort Dauphin,Туланару,Fort Dauphin (FTU),MG,Madagascar,46.955555,-25.038055
775,2265,FUE,Puerto del Rosario,Фуэртевентура,Puerto del Rosario (FUE),ES,Spain,-13.869893,28.450605
776,2285,FYV,Fayetteville,Фейетвилл,Fayetteville (FYV),US,United States,-94.1574263,36.0625795
777,2304,GAS,Garissa,Гарисса,Garissa (GAS),KE,Kenya,39.65,-0.45
778,2313,GBB,Gabala,Габала,Gabala (GBB),AZ,Azerbaijan,47.4245,40.4936
779,1545,CXQ,Christmas Creek,Кристмас-Крик,Christmas Creek (CXQ),AU,Australia,125.916664,-18.866667
780,1548,CYA,Les Cayes,Ле-Ке,Les Cayes (CYA),HT,Haiti,-73.78833,18.269722
781,1552,CYG,Corryong,Коррионг,Corryong (CYG),AU,Australia,147.9,-36.25
782,1555,CYM,Chatham,Чатем,Chatham (CYM),US,United States,-135.0,57.5
783,1563,CYZ,Cauayan,Кауаян,Cauayan (CYZ),PH,Philippines,121.75584,16.93
784,1569,CZH,Corozal,Коросаль,Corozal (CZH),BZ,Belize,-88.416664,18.383333
785,1611,DBP,Debepare,Дебепаре,Debepare (DBP),PG,Papua New Guinea,141.9,-6.283333
786,1616,DBV,Dubrovnik,Дубровник,Dubrovnik (DBV),HR,Croatia,18.260616,42.56072
787,1636,DEH,Decorah,Декора,Decorah (DEH),US,United States,-91.8,43.3
788,1665,DHD,Durham Downs,Дарем-Даунс,Durham Downs (DHD),AU,Australia,149.08333,-26.1
789,1666,DHI,Dhangarhi,Дхангадхи,Dhangarhi (DHI),NP,Nepal,80.63333,28.683332
790,1669,DHN,Dothan,Дотан,Dothan (DHN),US,United States,-85.44833,31.32
791,1705,DLC,Dalian,Далянь,Dalian (DLC),CN,China,121.53999,38.96102
792,642,BGL,Baglung,Баглунг,Baglung (BGL),NP,Nepal,83.683334,28.215279
793,664,BHL,Bahia Angeles,Баия-де-лос-Анхелес,Bahia Angeles (BHL),MX,Mexico,-113.55,28.95
794,667,BHO,Bhopal,Бхопал,Bhopal (BHO),IN,India,77.34177,23.284761
795,689,BIM,Bimini,Бимини,Bimini (BIM),BS,Bahamas,-79.2507534,25.7428471
796,699,BIW,Billiluna,Биллилуна,Billiluna (BIW),AU,Australia,127.166664,-19.566668
797,707,BJF,Batsfjord,Ботсфьорд,Batsfjord (BJF),NO,Norway,29.666668,70.6
798,708,BJG,Bolaang,Котамобагу,Bolaang (BJG),ID,Indonesia,122.1,-0.95
799,745,BKX,Brookings,Брукингс,Brookings (BKX),US,United States,-96.81111,44.303333
800,761,BLO,Blonduos,Блёндюоус,Blonduos (BLO),IS,Iceland,-20.3,65.666664
801,771,BLY,Belmullet,Белмаллет,Belmullet (BLY),IE,Ireland,-10.0,54.233334
802,777,BMF,Bakouma,Бакума,Bakouma (BMF),CF,Central African Republic,22.8,5.733333
803,785,BMN,Bamerny,Бамарни,Bamerny (BMN),IQ,Iraq,43.266666,37.1
804,786,BMO,Bhamo,Банмо,Bhamo (BMO),MM,Myanmar,97.25166,24.27389
805,802,BNF,Baranof,остров Баранова,Baranof (BNF),US,United States,-135.0,57.0
806,1011,BXE,Bakel,Бакель,Bakel (BXE),SN,Senegal,-12.467778,14.841667
807,1023,BXU,Butuan,Бутуан,Butuan (BXU),PH,Philippines,125.48123,8.947999
808,8625,BYH,Blytheville,Блайтвилл,Blytheville (BYH),US,United States,-89.916664,35.933334
809,1075,CAM,Camiri,Камири,Camiri (CAM),BO,Bolivia,-63.56111,-20.01111
810,1080,CAR,Caribou,Карибу,Caribou (CAR),US,United States,-68.01667,46.86667
811,1084,CAW,Campos,Кампус-дус-Гойтаказис,Campos (CAW),BR,Brazil,-41.3,-21.75
812,1107,CBU,Cottbus,Котбус,Cottbus (CBU),DE,Germany,14.3274885,51.7607292
813,1127,CCQ,Cachoeira,Кашуэйра,Cachoeira (CCQ),BR,Brazil,-38.966667,-12.6
814,1129,CCS,Caracas,Каракас,Caracas (CCS),VE,Venezuela,-67.00551,10.596942
815,1141,CDE,Caledonia,Каледония,Caledonia (CDE),PA,Panama,-77.55,8.333333
816,1190,CFI,Camfield,Камфилд,Camfield (CFI),AU,Australia,131.28334,-17.033333
817,1192,CFN,Donegal,Донегол,Donegal (CFN),IE,Ireland,-8.340278,55.041668
818,1206,CGG,Casiguran,Касигуран,Casiguran (CGG),PH,Philippines,122.01667,16.083332
819,1268,CJC,Calama,Калама,Calama (CJC),CL,Chile,-68.90843,-22.495085
820,1687,DIW,Dikwella,Диквелла,Dikwella (DIW),LK,Sri Lanka,80.73323,5.990751
821,1690,DJB,Jambi,Джамби,Jambi (DJB),ID,Indonesia,103.63936,-1.6304319999999999
822,1691,DJE,Djerba,Джерба,Djerba (DJE),TN,Tunisia,10.775145,33.87118
823,1696,DJO,Daloa,Далоа,Daloa (DJO),CI,Ivory Coast,-6.466667,6.866944
824,1762,DOS,Dios,Диос,Dios (DOS),PG,Papua New Guinea,154.83333,-5.533333
825,1780,DRG,Deering,Диринг,Deering (DRG),US,United States,-162.75989,66.0712
826,1800,DSN,Dongsheng,Ордос,Dongsheng (DSN),CN,China,110.03333,39.85
827,1804,DTE,Daet,Дает,Daet (DTE),PH,Philippines,122.98333,14.133333
828,1807,DTM,Dortmund,Дортмунд,Dortmund (DTM),DE,Germany,7.613139,51.514828
829,1809,DTT,Detroit,Детройт,Detroit (DTT),US,United States,-83.0457538,42.331427
830,8732,DWR,Dwyer,Кэмп-Дуайер,Dwyer (DWR),AF,Afghanistan,64.2128550521691,31.13346534396697
831,1927,EKE,Ekereku,Экереку,Ekereku (EKE),GY,Guyana,-59.88333,5.916667
832,1928,EKI,Elkhart,Элкхарт,Elkhart (EKI),US,United States,-85.992226,41.72222
833,1937,ELE,El Real,Эль-Реаль,El Real (ELE),PA,Panama,-77.833336,8.166667
834,1734,DNK,Dnipro,Днепр,Dnipro (DNK),UA,Ukraine,35.09446,48.36874
835,1761,DOR,Dori,Дори,Dori (DOR),BF,Burkina Faso,-0.033333,14.033333
836,1766,DOY,Dongying,Дунъин,Dongying (DOY),CN,China,118.78778,37.518333
837,1775,DRB,Derby,Дерби,Derby (DRB),AU,Australia,123.6301046,-17.3036783
838,1877,ECS,Newcastle,Ньюкасл,Newcastle (ECS),US,United States,-104.183334,43.833332
839,1887,EDO,Edremit,Эдремит,Edremit (EDO),TR,Turkey,27.033333,39.583332
840,1910,EGX,Egegik,Эгиджик,Egegik (EGX),US,United States,-157.37029,58.20778
841,1918,EIN,Eindhoven,Эйндховен,Eindhoven (EIN),NL,Netherlands,5.4697225,51.441642
842,1973,ENA,Kenai,Кенай,Kenai (ENA),US,United States,-151.24644,60.56521
843,1994,EOZ,Elorza,Элорса,Elorza (EOZ),VE,Venezuela,-69.53333,7.166667
844,1999,EPL,Epinal,Эпиналь,Epinal (EPL),FR,France,6.069444,48.325832
845,2019,ERU,Erume,Эруме,Erume (ERU),PG,Papua New Guinea,147.08333,-8.416667
846,2037,ESU,Essaouira,Эс-Сувейра,Essaouira (ESU),MA,Morocco,-9.681667000000001,31.3975
847,2060,EVH,Evans Head,Эванс-Хед,Evans Head (EVH),AU,Australia,153.41667,-29.1
848,2623,GZT,Gaziantep,Газиантеп,Gaziantep (GZT),TR,Turkey,37.473747,36.944935
849,2630,HAF,Half Moon,Халф-Мун-Бэй,Half Moon (HAF),US,United States,-122.433334,37.466667
850,2635,HAL,Halali,Халали,Halali (HAL),NA,Namibia,13.066667,-19.966667
851,2671,HDM,Hamadan,Хамадан,Hamadan (HDM),IR,Iran,48.53732,34.867146
852,2722,HIM,Hingurakgoda,Хингуракгода,Hingurakgoda (HIM),LK,Sri Lanka,80.97111,8.05
853,2725,HIP,Headingly,Хедингли,Headingly (HIP),AU,Australia,138.28334,-21.316668
854,2740,HLB,Batesville,Бейтсвилл,Batesville (HLB),US,United States,-85.21667,39.3
855,2759,HMG,Hermannsburg,Херманнсберг,Hermannsburg (HMG),AU,Australia,132.75,-23.95
856,2762,HMO,Hermosillo,Эрмосильо,Hermosillo (HMO),MX,Mexico,-111.051704,29.089905
857,2787,HOI,Hao Island,Хао,Hao Island (HOI),PF,French Polynesia,-140.96529,-18.06248
858,2808,HRA,Mansehra,Мансехра,Mansehra (HRA),PK,Pakistan,73.2,34.333332
859,2811,HRE,Harare,Хараре,Harare (HRE),ZW,Zimbabwe,31.099249,-17.91863
860,8806,HRI,Hambantota,Хамбантота,Hambantota (HRI),LK,Sri Lanka,81.123611,6.288889
861,1301,CLG,Coalinga,Коулинга,Coalinga (CLG),US,United States,-120.35,36.15
862,1305,CLL,College Station,Колледж-Стейшен,College Station (CLL),US,United States,-96.36682,30.593842
863,1322,CMD,Cootamundra,Кутамундра,Cootamundra (CMD),AU,Australia,148.04333,-34.628334
864,1337,CMT,Cameta,Камета,Cameta (CMT),BR,Brazil,-49.5,-2.2
865,1344,CNA,Cananea,Кананеа,Cananea (CNA),MX,Mexico,-110.333336,31.0
866,1346,CNC,Coconut Island,Коконат-Айленд,Coconut Island (CNC),AU,Australia,143.06659,-10.050179
867,1353,CNK,Concordia,Конкордия,Concordia (CNK),US,United States,-97.666664,39.566666
868,1354,CNL,Sindal,Синдаль,Sindal (CNL),DK,Denmark,10.216667,57.483334
869,1356,CNO,Chino,Чино,Chino (CNO),US,United States,-117.63917000000001,33.98083
870,1394,CPD,Coober Pedy,Кубер-Педи,Coober Pedy (CPD),AU,Australia,134.75278,-29.044443
871,1425,CRM,Catarman,Катарман,Catarman (CRM),PH,Philippines,124.583336,12.483333
872,1427,CRP,Corpus Christi,Корпус-Кристи,Corpus Christi (CRP),US,United States,-97.396381,27.8005828
873,1431,CRT,Crossett,Кроссетт,Crossett (CRT),US,United States,-91.96667,33.13333
874,2337,GCK,Garden City,Гарден-Сити,Garden City (GCK),US,United States,-100.72972,37.92861
875,2364,GEF,Geva,Гева,Geva (GEF),SB,Solomon Islands,156.59778,-7.578333
876,2371,GES,General Santos City,Генерал-Сантос,General Santos City (GES),PH,Philippines,125.23424,6.108066
877,2409,GIF,Winter Haven,Уинтер-Хейвен,Winter Haven (GIF),US,United States,-81.75,28.066668
878,2413,GIR,Girardot,Хирардот,Girardot (GIR),CO,Colombia,-74.8,4.3
879,2450,GLW,Glasgow,Глазго,Glasgow (GLW),US,United States,-85.916664,37.0
880,2472,GNR,General Roca,Хенераль-Рока,General Roca (GNR),AR,Argentina,-67.6,-39.983334
881,2477,GNZ,Ghanzi,Ганзи,Ghanzi (GNZ),BW,Botswana,21.666668,-21.7
882,2511,GRB,Green Bay,Грин-Бэй,Green Bay (GRB),US,United States,-88.121895,44.492847
883,2518,GRJ,George,Джордж,George (GRJ),ZA,South Africa,22.382235,-34.00148
884,2524,GRQ,Groningen,Гронинген,Groningen (GRQ),NL,Netherlands,6.575556,53.120277
885,2548,GSY,Grimsby,Гримсби,Grimsby (GSY),GB,United Kingdom,-0.083333,53.583332
886,2573,GUM,Guam,Хагатна,Guam (GUM),GU,Guam,144.751511,13.47617
887,1803,DTD,Datadawai,Датадаваи,Datadawai (DTD),ID,Indonesia,116.60037,0.621316
888,1841,DYU,Dushanbe,Душанбе,Dushanbe (DYU),TJ,Tajikistan,68.81728,38.54894
889,1843,DZA,Dzaoudzi,Мамуцу,Dzaoudzi (DZA),YT,Mayotte,45.2821,-12.804901
890,1856,EAS,San Sebastian,Сан-Себастьян,San Sebastian (EAS),ES,Spain,-1.9844474,43.3208116
891,1860,EBB,Entebbe,Энтеббе,Entebbe (EBB),UG,Uganda,32.443184,0.045111
892,1868,EBS,Webster City,Уэбстер-Сити,Webster City (EBS),US,United States,-93.816666,42.466667
893,1880,EDD,Erldunda,Эрлданда,Erldunda (EDD),AU,Australia,133.2,-25.25
894,1897,EFL,Kefallinia,Кефалиния,Kefallinia (EFL),GR,Greece,20.505556,38.118057
895,1905,EGN,Geneina,Эль-Генейна,Geneina (EGN),SD,Sudan,22.469444,13.4875
896,1936,ELD,El Dorado,Эль-Дорадо,El Dorado (ELD),US,United States,-92.81472,33.220554
897,1944,ELL,Ellisras,Лепхалале,Ellisras (ELL),ZA,South Africa,27.683332,-23.716667
898,1963,EMK,Emmonak,Эммонак,Emmonak (EMK),US,United States,-164.52083,62.776943
899,1964,EML,Luzern,Люцерн,Luzern (EML),CH,Switzerland,8.304722,47.0925
900,9345,ENY,Yan'an,Яньань,Yan'an (ENY),CN,China,109.55148,36.639366
901,807,BNM,Bodinumu,Бодинуму,Bodinumu (BNM),PG,Papua New Guinea,147.61667,-9.116667
902,838,BOT,Boset,Боссет,Boset (BOT),PG,Papua New Guinea,141.08333,-7.233333
903,8631,BPL,Bole,Боро-Тала,Bole (BPL),CN,China,82.024185,44.904232
904,861,BQB,Bussellton,Басселтон,Bussellton (BQB),AU,Australia,115.25,-33.716667
905,889,BRS,Bristol,Бристоль,Bristol (BRS),GB,United Kingdom,-2.710659,51.386757
906,911,BSQ,Bisbee,Бисби,Bisbee (BSQ),US,United States,-109.88111,31.36389
907,932,BTL,Battle Creek,Баттл-Крик,Battle Creek (BTL),US,United States,-85.26481,42.37278
908,933,BTM,Butte,Бьютт,Butte (BTM),US,United States,-112.49389,45.95111
909,942,BTV,Burlington,Берлингтон,Burlington (BTV),US,United States,-73.15527,44.469013
910,952,BUG,Benguela,Бенгела,Benguela (BUG),AO,Angola,13.405556,-12.606389
911,1018,BXM,Batom,Батом,Batom (BXM),ID,Indonesia,140.85,-4.116667
912,1031,BYG,Buffalo,Буффало,Buffalo (BYG),US,United States,-106.7,44.35
913,1044,BYX,Baniyala,Банияла,Baniyala (BYX),AU,Australia,136.23334,-13.2
914,1063,BZY,Beltsy,Бельцы,Beltsy (BZY),MD,Moldova,27.933332,47.75
915,1275,CJS,Ciudad Juarez,Сьюдад-Хуарес,Ciudad Juarez (CJS),MX,Mexico,-106.4361,31.63593
916,1291,CKR,Crane Island,Крэйн-Айленд,Crane Island (CKR),US,United States,-123.0,48.6
917,1297,CKZ,Canakkale,Чанаккале,Canakkale (CKZ),TR,Turkey,26.4,40.13333
918,1302,CLH,Coolah,Кула,Coolah (CLH),AU,Australia,149.7,-31.833332
919,1309,CLP,Clarks Point,Кларкс-Пойнт,Clarks Point (CLP),US,United States,-158.54306,58.843056
920,1314,CLU,Columbus,Колумбус,Columbus (CLU),US,United States,-85.916664,39.216667
921,8687,CLW,Clearwater,Клируотер,Clearwater (CLW),US,United States,-82.75861,27.976667
922,1324,CMF,Chambery,Шамбери,Chambery (CMF),FR,France,5.88437,45.637993
923,1325,CMG,Corumba,Корумба,Corumba (CMG),BR,Brazil,-57.672222,-19.01111
924,1336,CMS,Scusciuban,Искушубан,Scusciuban (CMS),SO,Somalia,50.233334,10.3
925,1341,CMX,Hancock,Ханкок,Hancock (CMX),US,United States,-88.48639,47.167778
926,1352,CNJ,Cloncurry,Клонкарри,Cloncurry (CNJ),AU,Australia,140.50851,-20.668905
927,1364,CNX,Chiang Mai,Чиангмай,Chiang Mai (CNX),TH,Thailand,98.96841,18.769573
928,1952,ELT,Tour Sinai City,Эт-Тур,Tour Sinai City (ELT),EG,Egypt,33.63333,28.216667
929,1953,ELU,El Oued,Эль-Уэд,El Oued (ELU),DZ,Algeria,6.783333,33.516666
930,1954,ELV,Elfin Cove,Элфин-Ков,Elfin Cove (ELV),US,United States,-136.31667,58.183334
931,1981,ENL,Centralia,Сентрейлия,Centralia (ENL),US,United States,-89.13333,38.516666
932,2002,EPS,Samana,Самана,Samana (EPS),DO,Dominican Republic,-69.5,19.25
933,2003,EPT,Eliptamin,Элиптамин,Eliptamin (EPT),PG,Papua New Guinea,141.66667,-5.033333
934,2030,ESM,Esmeraldas,Эсмеральдас,Esmeraldas (ESM),EC,Ecuador,-79.625,0.966667
935,2031,ESN,Easton,Истон,Easton (ESN),US,United States,-76.06778,38.802776
936,9013,EWR,Newark,Ньюарк,Newark (EWR),US,United States,-74.17876,40.68907
937,2090,FAJ,Fajardo,Фахардо,Fajardo (FAJ),PR,Puerto Rico,-65.50222,18.338888
938,2106,FBR,Fort Bridger,Форт-Бриджер,Fort Bridger (FBR),US,United States,-110.38333,41.316666
939,2108,FBY,Fairbury,Фэрбери,Fairbury (FBY),US,United States,-97.183334,40.13333
940,2118,FDU,Bandundu,Бандунду,Bandundu (FDU),CD,Democratic Republic of the Congo,17.383333,-3.305556
941,2073,EXI,Excursion Inlet,Экскёршен-Инлет,Excursion Inlet (EXI),US,United States,-135.44722,58.420834
942,2078,EYR,Yerington,Йерингтон,Yerington (EYR),US,United States,-119.25,39.0
943,8616,EZV,Berezovo,Берёзово,Berezovo (EZV),RU,Russia,65.04485,63.924583
944,2085,FAE,Faroe Islands,Фарерские острова,Faroe Islands (FAE),FO,Faroe Islands,-7.266667,62.066666
945,2087,FAG,Fagurholsmyri,Фагурхоульсмири,Fagurholsmyri (FAG),IS,Iceland,-16.65,63.88333
946,2097,FAS,Faskrudsfjordur,Фаускрудсфьордюр,Faskrudsfjordur (FAS),IS,Iceland,-14.016667,64.95
947,2110,FCB,Ficksburg,Фиксбург,Ficksburg (FCB),ZA,South Africa,27.908333,-28.825
948,2137,FFU,Futaleufu,Футалеуфу,Futaleufu (FFU),CL,Chile,-71.816666,-43.2
949,2153,FIZ,Fitzroy Crossing,Фицрой-Кроссинг,Fitzroy Crossing (FIZ),AU,Australia,125.55417,-18.178333
950,2200,FNK,Fin Creek,Фин-Крик,Fin Creek (FNK),US,United States,-147.58333,69.5
951,2218,FOX,Fox,Фокс,Fox (FOX),US,United States,-147.0,64.0
952,2229,FRH,French Lick,Френч-Лик,French Lick (FRH),US,United States,-86.61667,38.55
953,2230,FRI,Fort Riley,Форт-Райли,Fort Riley (FRI),US,United States,-96.78333,39.083332
954,2825,HSG,Saga,Сага,Saga (HSG),JP,Japan,130.30278,33.153828
955,2831,HSP,Hot Springs,Хот-Спрингс,Hot Springs (HSP),US,United States,-79.833885,37.950558
956,2870,HUZ,Huizhou,Хойчжоу,Huizhou (HUZ),CN,China,114.36667,23.083332
957,2875,HVG,Honningsvag,Хоннингсвог,Honningsvag (HVG),NO,Norway,25.833332,70.98333
958,2876,HVK,Holmavik,Хоульмавик,Holmavik (HVK),IS,Iceland,-22.466667,65.7
959,2901,HZL,Hazleton,Хазлтон,Hazleton (HZL),US,United States,-75.99111,40.98639
960,2935,IDP,Independence,Индепенденс,Independence (IDP),US,United States,-95.7,37.233334
961,2952,IGH,Ingham,Ингем,Ingham (IGH),AU,Australia,146.16667,-18.716667
962,2968,IIS,Nissan Island,Ниссан,Nissan Island (IIS),PG,Papua New Guinea,154.34166,-4.333333
963,3006,IML,Imperial,Империал,Imperial (IML),US,United States,-101.65,40.516666
964,3009,IMO,Zemio,Земио,Zemio (IMO),CF,Central African Republic,25.083332,5.033333
965,3021,INJ,Injune,Инджун,Injune (INJ),AU,Australia,148.53334,-25.883333
966,3029,INT,Winston-Salem,Уинстон-Сейлем,Winston-Salem (INT),US,United States,-80.225555,36.135277
967,3071,IRP,Isiro,Исиро,Isiro (IRP),CD,Democratic Republic of the Congo,27.630833,2.781944
968,8688,CSM,Clinton,Клинтон,Clinton (CSM),US,United States,-96.933334,35.539165
969,1461,CSY,Cheboksary,Чебоксары,Cheboksary (CSY),RU,Russia,47.266666,56.13333
970,1483,CTW,Cottonwood,Коттонвуд,Cottonwood (CTW),US,United States,-112.03333,34.733334
971,1485,CTY,Cross City,Кросс-Сити,Cross City (CTY),US,United States,-83.11667,29.633333
972,1486,CTZ,Clinton,Клинтон,Clinton (CTZ),US,United States,-78.36667,35.0
973,1490,CUE,Cuenca,Куэнка,Cuenca (CUE),EC,Ecuador,-78.98689,-2.889343
974,1624,DDC,Dodge City,Додж-Сити,Dodge City (DDC),US,United States,-99.965,37.761665
975,1626,DDI,Daydream Island,Дейдрим-Айленд,Daydream Island (DDI),AU,Australia,148.81667,-20.266666
976,9412,DHG,Dalnegorsk,Дальнегорск,Dalnegorsk (DHG),RU,Russia,135.61667,44.56667
977,1675,DIJ,Dijon,Дижон,Dijon (DIJ),FR,France,5.088889,47.270832
978,1693,DJJ,Jayapura,Джаяпура,Jayapura (DJJ),ID,Indonesia,140.51299,-2.569887
979,8877,DKA,Katsina,Кацина,Katsina (DKA),NG,Nigeria,7.660803,13.003712
980,1768,DPG,Dugway,Дагвей,Dugway (DPG),US,United States,-112.75,40.233334
981,2605,GXQ,Coyhaique,Койайке,Coyhaique (GXQ),CL,Chile,-72.09861,-45.58889
982,2606,GXX,Yagoua,Ягуа,Yagoua (GXX),CM,Cameroon,15.2375,10.358333
983,2614,GYP,Gympie,Гимпи,Gympie (GYP),AU,Australia,152.63333,-26.183332
984,2626,HAB,Hamilton,Гамильтон,Hamilton (HAB),US,United States,-88.1,34.15
985,2638,HAO,Hamilton,Гамильтон,Hamilton (HAO),US,United States,-84.566666,39.4
986,2664,HCW,Cheraw,Черо,Cheraw (HCW),US,United States,-79.88333,34.7
987,2670,HDH,Oahu,Оаху,Oahu (HDH),US,United States,-157.96666,21.466667
988,2683,HEL,Helsinki,Хельсинки,Helsinki (HEL),FI,Finland,25.0402427,60.2943605
989,2689,HEZ,Natchez,Натчез,Natchez (HEZ),US,United States,-91.29639,31.614721
990,2695,HFS,Hagfors,Хагфорс,Hagfors (HFS),SE,Sweden,13.569167,60.0175
991,8840,HIA,Huai'an,Хуайань,Huai'an (HIA),CN,China,119.12778,33.7875
992,2726,HIR,Honiara,Хониара,Honiara (HIR),SB,Solomon Islands,160.04819,-9.428592
993,2730,HJR,Khajuraho,Кхаджурахо,Khajuraho (HJR),IN,India,79.91642,24.818747
994,2735,HKK,Hokitika,Хокитика,Hokitika (HKK),NZ,New Zealand,170.98346,-42.714912
995,1995,EPA,El Palomar,Эль-Паломар,El Palomar (EPA),AR,Argentina,-58.6125,-34.608334
996,8742,ESA,Esa'Ala,Эса'ала,Esa'Ala (ESA),PG,Papua New Guinea,150.81667,-9.733333
997,2024,ESE,Ensenada,Энсенада,Ensenada (ESE),MX,Mexico,-116.61667,31.866667
998,2048,EUE,Eureka,Юрика,Eureka (EUE),US,United States,-115.916664,39.5
999,2067,EWD,Wildman Lake,Уайлдмен-Лейк,Wildman Lake (EWD),US,United States,-159.76222,56.45639
1000,2081,EZS,Elazig,Элязыг,Elazig (EZS),TR,Turkey,39.291668,38.608334
1001,2151,FIN,Finschhafen,Финшхафен,Finschhafen (FIN),PG,Papua New Guinea,147.86389,-6.6274999999999995
1002,2161,FKS,Fukushima,Фукусима,Fukushima (FKS),JP,Japan,140.43279,37.226665
1003,2190,FMS,Fort Madison,Форт-Мэдисон,Fort Madison (FMS),US,United States,-91.3275,40.65889
1004,2192,FNA,Freetown,Фритаун,Freetown (FNA),SL,Sierra Leone,-13.22867,8.484146
1005,2202,FNR,Funter Bay,Фантер-Бэй,Funter Bay (FNR),US,United States,-134.58333,58.333332
1006,2206,FOC,Fuzhou,Фучжоу,Fuzhou (FOC),CN,China,119.66923,25.93123
1007,2241,FRU,Bishkek,Бишкек,Bishkek (FRU),KG,Kyrgyzstan,74.46945,43.05358
1008,2257,FTE,El Calafate,Эль-Калафате,El Calafate (FTE),AR,Argentina,-72.053696,-50.284225
1009,1378,CON,Concord,Конкорд,Concord (CON),US,United States,-71.53333,43.2
1010,1393,CPC,San Martin De Los Andes,Сан-Мартин-де-лос-Андес,San Martin De Los Andes (CPC),AR,Argentina,-71.13333,-40.066666
1011,1410,CQA,Canarana,Канарана,Canarana (CQA),BR,Brazil,-52.27028,-13.574167
1012,1492,CUG,Cudal,Кьюдал,Cudal (CUG),AU,Australia,151.0,-32.0
1013,1519,CVL,Cape Vogel,Кейп-Фогель,Cape Vogel (CVL),PG,Papua New Guinea,150.5,-9.466667
1014,8553,CVO,Albany,Олбани,Albany (CVO),US,United States,-123.11667,44.63333
1015,1534,CWT,Cowra,Коура,Cowra (CWT),AU,Australia,148.64667,-33.855
1016,1572,CZL,Constantine,Константина,Constantine (CZL),DZ,Algeria,6.618425,36.286476
1017,1700,DKR,Dakar,Дакар,Dakar (DKR),SN,Senegal,-17.490194,14.744975
1018,1711,DLL,Dillon,Диллон,Dillon (DLL),US,United States,-79.36667,34.416668
1019,1716,DLU,Dali City,Дали,Dali City (DLU),CN,China,100.32316,25.65135
1020,1717,DLV,Delissaville,Делиссавил,Delissaville (DLV),AU,Australia,130.63333,-12.566667
1021,1724,DMO,Sedalia,Седалия,Sedalia (DMO),US,United States,-93.18056,38.704166
1022,1746,DOA,Doany,Дуани,Doany (DOA),MG,Madagascar,49.5,-14.366667
1023,1067,CAD,Cadillac,Кадиллак,Cadillac (CAD),US,United States,-85.42222,44.275833
1024,1078,CAP,Cap Haitien,Кап-Аитьен,Cap Haitien (CAP),HT,Haiti,-72.195,19.732779
1025,1088,CBA,Corner Bay,Корнер-Бэй,Corner Bay (CBA),US,United States,-135.2,57.716667
1026,1096,CBI,Cape Barren Island,Кейп-Баррен,Cape Barren Island (CBI),AU,Australia,148.16667,-40.333332
1027,1101,CBO,Cotabato,Котабато,Cotabato (CBO),PH,Philippines,124.21464,7.161412
1028,1106,CBT,Catumbela,Катумбела,Catumbela (CBT),AO,Angola,13.483333,-12.483333
1029,1108,CBV,Coban,Кобан,Coban (CBV),GT,Guatemala,-90.409164,15.471667
1030,1116,CCF,Carcassonne,Каркасон,Carcassonne (CCF),FR,France,2.316667,43.216667
1031,1126,CCP,Concepcion,Консепсьон,Concepcion (CCP),CL,Chile,-73.05944,-36.777122
1032,8669,CDT,Castellon de la Plana,Кастельон-де-ла-Плана,Castellon de la Plana (CDT),ES,Spain,-0.05,39.97
1033,1159,CEC,Crescent City,Кресент-Сити,Crescent City (CEC),US,United States,-124.23583,41.78
1034,1160,CED,Ceduna,Сидуна,Ceduna (CED),AU,Australia,133.70122,-32.12378
1035,1180,CEY,Murray,Мюррей,Murray (CEY),US,United States,-88.316666,36.61667
1036,2139,FGL,Fox Glacier,Фокс-Глейшер,Fox Glacier (FGL),NZ,New Zealand,170.01666,-43.466667
1037,2146,FIE,Fair Isle,Фэр-Айл,Fair Isle (FIE),GB,United Kingdom,-1.666667,59.5
1038,2149,FIK,Finke,Финке,Finke (FIK),AU,Australia,134.58333,-25.566668
1039,2150,FIL,Fillmore,Филлмор,Fillmore (FIL),US,United States,-112.3625,38.958332
1040,2188,FMN,Farmington,Фармингтон,Farmington (FMN),US,United States,-108.229164,36.74111
1041,2196,FNG,Fada Ngourma,Фада-Нгурма,Fada Ngourma (FNG),BF,Burkina Faso,0.35,12.066667
1042,2220,FPO,Freeport,Фрипорт,Freeport (FPO),BS,Bahamas,-78.7052,26.547293
1043,2275,FVR,Forrest River,Форест-Ривер,Forrest River (FVR),AU,Australia,127.833336,-15.253056
1044,2321,GBJ,Marie Galante,Мари-Галант,Marie Galante (GBJ),GP,Guadeloupe,-61.266666,15.866667
1045,2355,GDT,Grand Turk Island,Гранд-Тёрк,Grand Turk Island (GDT),TC,Turks and Caicos Islands,-71.13333,21.466667
1046,2359,GDZ,Gelendzik,Геленджик,Gelendzik (GDZ),RU,Russia,38.016666,44.566666
1047,8771,GEX,Geelong,Джелонг,Geelong (GEX),AU,Australia,144.35,-38.13333
1048,2378,GFE,Grenfell,Гренфелл,Grenfell (GFE),AU,Australia,148.18333,-33.9
1049,2386,GGC,Lumbala,Лумбала,Lumbala (GGC),AO,Angola,22.566668,-12.65
1050,3088,ISQ,Manistique,Манистик,Manistique (ISQ),US,United States,-86.25,45.95
1051,3107,IUS,Inus,Инус,Inus (IUS),PG,Papua New Guinea,155.16667,-5.816667
1052,3122,IXC,Chandigarh,Чандигарх,Chandigarh (IXC),IN,India,76.797386,30.674921
1053,3154,JAL,Jalapa,Халапа,Jalapa (JAL),MX,Mexico,-96.781944,19.472221
1054,3171,JCM,Jacobina,Жакобина,Jacobina (JCM),BR,Brazil,-40.516666,-11.183333
1055,3192,JFM,Fremantle,Фримантл,Fremantle (JFM),AU,Australia,115.75,-32.05
1056,3211,JIL,Jilin,Гирин,Jilin (JIL),CN,China,126.65,43.86667
1057,3246,JNU,Juneau,Джуно,Juneau (JNU),US,United States,-134.58339,58.35932
1058,3277,JST,Johnstown,Джонстаун,Johnstown (JST),US,United States,-78.83444,40.316666
1059,3292,JUR,Jurien Bay,Джуриен-Бэй,Jurien Bay (JUR),AU,Australia,115.05,-30.266666
1060,3299,JWA,Jwaneng,Джваненг,Jwaneng (JWA),BW,Botswana,24.666668,-24.6
1061,3302,JYR,Jiroft,Джирофт,Jiroft (JYR),IR,Iran,57.666668,28.716667
1062,3313,KAJ,Kajaani,Каяани,Kajaani (KAJ),FI,Finland,27.688889,64.27778
1063,3319,KAP,Kapanga,Капанга,Kapanga (KAP),CD,Democratic Republic of the Congo,22.666668,-8.5
1064,1771,DPO,Devonport,Девонпорт,Devonport (DPO),AU,Australia,146.42754,-41.172054
1065,9714,DTB,Siborong-Borong,Сиборонг-Боронг,Siborong-Borong (DTB),ID,Indonesia,98.995278,2.259722
1066,8716,DTI,Diamantina,Диамантина,Diamantina (DTI),BR,Brazil,-43.647846,-18.230804
1067,1806,DTL,Detroit Lakes,Детройт-Лейкс,Detroit Lakes (DTL),US,United States,-95.88611,46.82639
1068,1846,DZO,Durazno,Дурасно,Durazno (DZO),UY,Uruguay,-56.516666,-33.416668
1069,1851,EAL,Kwajalein Atoll,Кваджалейн,Kwajalein Atoll (EAL),MH,Marshall Islands,166.84723,9.333333
1070,5518,ECP,Panama City,Панама-Сити,Panama City (ECP),US,United States,-85.6602058,30.1588129
1071,1878,EDA,Edna Bay,Эдна-Бэй,Edna Bay (EDA),US,United States,-133.66667,55.95
1072,1929,EKN,Elkins,Элкинс,Elkins (EKN),US,United States,-79.85778,38.889442
1073,1958,ELZ,Wellsville,Уэллсвилл,Wellsville (ELZ),US,United States,-77.95,42.11667
1074,1970,EMT,El Monte,Эль-Монте,El Monte (EMT),US,United States,-118.03333,34.083332
1075,1976,ENF,Enontekio,Энонтекиё,Enontekio (ENF),FI,Finland,23.416668,68.35
1076,1997,EPH,Ephrata,Эфрата,Ephrata (EPH),US,United States,-119.5125,47.30417
1077,2016,ERO,Eldred Rock,Элдред-Ро,Eldred Rock (ERO),US,United States,17.083332,-22.616667
1078,2777,HNX,Hanna,Ханна,Hanna (HNX),US,United States,-106.5,41.833332
1079,2781,HOC,Komako,Комако,Komako (HOC),PG,Papua New Guinea,145.88333,-7.416667
1080,2790,HOM,Homer,Хомер,Homer (HOM),US,United States,-151.49316,59.64324
1081,8839,HOU,Houston,Хьюстон,Houston (HOU),US,United States,-95.383056,29.762778
1082,2813,HRJ,Chaurjahari,Чаурджахари,Chaurjahari (HRJ),NP,Nepal,82.333336,28.0
1083,2821,HRY,Henbury,Хенбери,Henbury (HRY),AU,Australia,133.25,-24.583332
1084,9423,HSA,Turkistan,Туркестан,Turkistan (HSA),KZ,Kazakhstan,68.26164765057479,43.2955342312473
1085,2849,HTZ,Hato Corozal,Ато-Коросаль,Hato Corozal (HTZ),CO,Colombia,-72.63333,6.033333
1086,2857,HUI,Hue,Хюэ,Hue (HUI),VN,Vietnam,107.700874,16.398224
1087,2858,HUJ,Hugo,Хьюго,Hugo (HUJ),US,United States,-95.51667,34.016666
1088,2878,HVR,Havre,Хавр,Havre (HVR),US,United States,-109.76111,48.544445
1089,2883,HWK,Hawker,Хокер,Hawker (HWK),AU,Australia,138.41667,-31.716667
1090,2931,IDI,Indiana,Индиана,Indiana (IDI),US,United States,-79.15,40.61667
1091,2934,IDO,Santa Isabel Do Morro,Санта-Изабел-ду-Морру,Santa Isabel Do Morro (IDO),BR,Brazil,-50.666668,-11.566667
1092,1765,DOX,Dongara,Донгара,Dongara (DOX),AU,Australia,114.933334,-29.25
1093,1777,DRD,Dorunda Station,Дорунда,Dorunda Station (DRD),AU,Australia,142.33333,-16.5
1094,1786,DRR,Durrie,Дери,Durrie (DRR),AU,Australia,140.21666,-25.616667
1095,8729,DUI,Duisburg,Дуйсбург,Duisburg (DUI),DE,Germany,6.76111,51.43222
1096,1890,EDW,Edwards,Эдвардс,Edwards (EDW),US,United States,-117.916664,35.0
1097,1903,EGL,Neghelli,Негеле,Neghelli (EGL),ET,Ethiopia,39.716667,5.283333
1098,1916,EIE,Eniseysk,Енисейск,Eniseysk (EIE),RU,Russia,92.11667,58.466667
1099,1921,EJA,Barrancabermeja,Барранкабермеха,Barrancabermeja (EJA),CO,Colombia,-73.799164,7.015833
1100,1946,ELN,Ellensburg,Элленсберг,Ellensburg (ELN),US,United States,-120.566666,46.983334
1101,1950,ELR,Elelim,Элелим,Elelim (ELR),ID,Indonesia,140.06667,-3.816667
1102,1956,ELX,El Tigre,Эль-Тигре,El Tigre (ELX),VE,Venezuela,-64.26667,8.883333
1103,1957,ELY,Ely,Или,Ely (ELY),US,United States,-114.84194,39.301945
1104,1986,ENT,Enewetak Island,Эневетак,Enewetak Island (ENT),MH,Marshall Islands,162.25,11.5
1105,2017,ERR,Errol,Эррол,Errol (ERR),US,United States,-71.13333,44.783333
1106,2258,FTI,Fitiuta,Фитиута,Fitiuta (FTI),AS,American Samoa,-169.45,-14.216667
1107,2259,FTK,Fort Knox,Форт-Нокс,Fort Knox (FTK),US,United States,-85.95,37.9
1108,8748,FZO,Filton,Филтон,Filton (FZO),GB,United Kingdom,-2.583333,51.516666
1109,2316,GBE,Gaborone,Габороне,Gaborone (GBE),BW,Botswana,25.92451,-24.557981
1110,2332,GBZ,Great Barrier Island,Грейт-Барриер,Great Barrier Island (GBZ),NZ,New Zealand,175.41667,-36.25
1111,2333,GCA,Guacamaya,Гуакамайя,Guacamaya (GCA),CO,Colombia,-75.5,2.316667
1112,2358,GDX,Magadan,Магадан,Magadan (GDX),RU,Russia,150.71666,59.916668
1113,2366,GEI,Green Islands,Грин-Айлендс,Green Islands (GEI),PG,Papua New Guinea,154.16667,-4.5
1114,2390,GGL,Gilgal,Хильгаль,Gilgal (GGL),CO,Colombia,-77.083336,8.333333
1115,2401,GHF,Giebelstadt,Гибельштадт,Giebelstadt (GHF),DE,Germany,9.966667,49.65
1116,2423,GJT,Grand Junction,Гранд-Джанкшен,Grand Junction (GJT),US,United States,-108.528336,39.122665
1117,2445,GLQ,Glennallen,Гленналлен,Glennallen (GLQ),US,United States,-145.55,62.11667
1118,3737,GNJ,Ganja,Гянджа,Ganja (GNJ),AZ,Azerbaijan,46.316666,40.733334
1119,2253,FSS,Forres,Форрес,Forres (FSS),GB,United Kingdom,-3.566667,57.65
1120,9186,FSZ,Shizuoka,Сидзуока,Shizuoka (FSZ),JP,Japan,138.18944,34.796112
1121,2262,FTW,Fort Worth,Форт-Уэрт,Fort Worth (FTW),US,United States,-97.333336,32.75
1122,2268,FUK,Fukuoka,Фукуока,Fukuoka (FUK),JP,Japan,130.4439,33.584286
1123,2303,GAR,Garaina,Гарайна,Garaina (GAR),PG,Papua New Guinea,147.1375,-7.873333
1124,2331,GBV,Gibb River,Гибб-Ривер,Gibb River (GBV),AU,Australia,126.63333,-15.65
1125,2336,GCI,Guernsey,Гернси,Guernsey (GCI),GG,Guernsey,-2.595044,49.432755
1126,2347,GDI,Gordil,Гордиль,Gordil (GDI),CF,Central African Republic,21.583332,9.733333
1127,2394,GGS,Gobernador Gregores,Гобернадор-Грегорес,Gobernador Gregores (GGS),AR,Argentina,-70.25,-48.766666
1128,2419,GJA,Guanaja,Гуанаха,Guanaja (GJA),HN,Honduras,-85.90583,16.445
1129,2420,GJL,Jijel,Джиджель,Jijel (GJL),DZ,Algeria,5.883333,36.8
1130,2421,GJM,Guajara-Mirim,Гуажара-Мирин,Guajara-Mirim (GJM),BR,Brazil,-65.36667,-10.783333
1131,2429,GKO,Kongoboumba,Конгобумба,Kongoboumba (GKO),GA,Gabon,11.466667,-0.083333
1132,3346,KBR,Kota Bharu,Кота-Бару,Kota Bharu (KBR),MY,Malaysia,102.29092,6.17057
1133,3348,KBT,Kaben,Кабен,Kaben (KBT),MH,Marshall Islands,170.91667,9.166667
1134,3366,KCO,Izmit,Измит,Izmit (KCO),TR,Turkey,29.833332,40.75
1135,3377,KDE,Koroba,Короба,Koroba (KDE),PG,Papua New Guinea,142.73334,-5.683333
1136,3435,KGN,Kasongo Lunda,Касонго-Лунда,Kasongo Lunda (KGN),CD,Democratic Republic of the Congo,16.816668,-6.583333
1137,3439,KGS,Kos,Кос,Kos (KGS),GR,Greece,27.095278,36.793056
1138,3443,KGY,Kingaroy,Кингарой,Kingaroy (KGY),AU,Australia,151.83333,-26.55
1139,3451,KHI,Karachi,Карачи,Karachi (KHI),PK,Pakistan,67.16828,24.899986
1140,3455,KHN,Nanchang,Наньчан,Nanchang (KHN),CN,China,115.907845,28.859901
1141,3483,KIT,Kithira,Китира,Kithira (KIT),GR,Greece,23.025,36.291668
1142,3574,KNK,Kokhanok,Коханок,Kokhanok (KNK),US,United States,-154.85,59.433334
1143,3578,KNP,Capanda,Капанда,Capanda (KNP),AO,Angola,15.450278,-9.766944
1144,3589,KOA,Kailua-Kona,Каилуа-Кона,Kailua-Kona (KOA),US,United States,-156.04108,19.736174
1145,3629,KPR,Port Williams,Порт-Уильямс,Port Williams (KPR),US,United States,-152.58333,58.433334
1146,2389,GGG,Longview,Лонгвью,Longview (GGG),US,United States,-94.71528,32.386665
1147,2416,GIU,Sigiriya,Сигирия,Sigiriya (GIU),LK,Sri Lanka,80.7595754,7.9564084
1148,2425,GKE,Geilenkirchen,Гайленкирхен,Geilenkirchen (GKE),DE,Germany,6.133333,50.966667
1149,2462,GMS,Guimaraes,Гимарайнс,Guimaraes (GMS),BR,Brazil,-44.7,-2.15
1150,2487,GOL,Gold Beach,Голд-Бич,Gold Beach (GOL),US,United States,-124.416664,42.416668
1151,2488,GOM,Goma,Гома,Goma (GOM),CD,Democratic Republic of the Congo,29.235,-1.67
1152,2514,GRE,Greenville,Гринвилл,Greenville (GRE),US,United States,-89.416664,38.88333
1153,2553,GTF,Great Falls,Грейт-Фолс,Great Falls (GTF),US,United States,-111.3008083,47.5002354
1154,2571,GUJ,Guaratingueta,Гуаратингета,Guaratingueta (GUJ),BR,Brazil,-45.216667,-22.816668
1155,2601,GWV,Glendale,Глендейл,Glendale (GWV),US,United States,-87.95,43.11667
1156,2620,GZM,Gozo,Гоцо,Gozo (GZM),MT,Malta,14.208333,36.041668
1157,2637,HAN,Hanoi,Ханой,Hanoi (HAN),VN,Vietnam,105.802826,21.214184
1158,2650,HBD,Habi,Хаби,Habi (HBD),PG,Papua New Guinea,142.49777,-6.333056
1159,1185,CFD,Bryan,Брайан,Bryan (CFD),US,United States,-96.36667,30.666668
1160,1187,CFF,Cafunfo,Кафунфу,Cafunfo (CFF),AO,Angola,18.0,-8.766667
1161,1196,CFR,Caen,Кан,Caen (CFR),FR,France,-0.459276,49.183437
1162,1208,CGJ,Chingola,Чингола,Chingola (CGJ),ZM,Zambia,27.883333,-12.516667
1163,1211,CGO,Zhengzhou,Чжэнчжоу,Zhengzhou (CGO),CN,China,113.84024,34.52752
1164,1233,CHO,Charlottesville,Шарлотсвилл,Charlottesville (CHO),US,United States,-78.44928,38.139416
1165,1306,CLM,Port Angeles,Порт-Анджелес,Port Angeles (CLM),US,United States,-123.49511,48.121883
1166,8666,CMN,Casablanca,Касабланка,Casablanca (CMN),MA,Morocco,-7.583333,33.533333
1167,1335,CMR,Colmar,Кольмар,Colmar (CMR),FR,France,7.366667,48.083332
1168,1338,CMU,Kundiawa,Кундиава,Kundiawa (CMU),PG,Papua New Guinea,144.97444,-5.993889
1169,9406,CNN,Kannur,Каннур,Kannur (CNN),IN,India,75.35556,11.86889
1170,1360,CNS,Cairns,Кэрнс,Cairns (CNS),AU,Australia,145.75404,-16.876537
1171,1374,COJ,Coonabarabran,Кунабарабран,Coonabarabran (COJ),AU,Australia,149.27194,-31.337221
1172,1381,COQ,Choibalsan,Чойбалсан,Choibalsan (COQ),MN,Mongolia,114.9,48.13333
1173,1391,CPA,Cape Palmas,Кейп-Палмас,Cape Palmas (CPA),LR,Liberia,-7.695556,4.376667
1174,2018,ERT,Erdenet,Эрдэнэт,Erdenet (ERT),MN,Mongolia,104.15,49.066666
1175,2020,ERV,Kerrville,Керрвилл,Kerrville (ERV),US,United States,-99.13333,30.05
1176,2038,ESW,Easton,Истон,Easton (ESW),US,United States,-121.183334,47.233334
1177,2044,ETS,Enterprise,Энтерпрайз,Enterprise (ETS),US,United States,-85.85,31.316668
1178,2047,EUC,Eucla,Юкла,Eucla (EUC),AU,Australia,128.86667,-31.716667
1179,2054,EUQ,Antique,Антике,Antique (EUQ),PH,Philippines,121.941666,10.775
1180,2058,EVE,Harstad-Narvik,Нарвик,Harstad-Narvik (EVE),NO,Norway,16.679722,68.496666
1181,2061,EVM,Eveleth,Эвлет,Eveleth (EVM),US,United States,-92.495834,47.426388
1182,2132,FFA,Kill Devil Hills,Килл-Девил-Хиллс,Kill Devil Hills (FFA),US,United States,-75.666664,36.016666
1183,2138,FGD,Fderik,Фдерик,Fderik (FGD),MR,Mauritania,-12.731944,22.675
1184,2176,FLS,Flinders Island,Флиндерс,Flinders Island (FLS),AU,Australia,147.99667,-40.095
1185,2177,FLT,Flat,Флэт,Flat (FLT),US,United States,-157.98666,62.454166
1186,2178,FLV,Fort Leavenworth,Форт-Ливенворт,Fort Leavenworth (FLV),US,United States,-94.916664,39.36667
1187,8849,IDY,Ile d'Yeu,Иль-д'Йе,Ile d'Yeu (IDY),FR,France,-2.388694,46.71787
1188,2969,IJK,Izhevsk,Ижевск,Izhevsk (IJK),RU,Russia,53.466667,56.833332
1189,2986,ILI,Iliamna,Илиамна,Iliamna (ILI),US,United States,-154.90834,59.752777
1190,2990,ILN,Wilmington,Уилмингтон,Wilmington (ILN),US,United States,-83.74083,39.493057
1191,2994,ILR,Ilorin,Илорин,Ilorin (ILR),NG,Nigeria,4.533333,8.5
1192,3000,IMB,Imbaimadai,Имбаимадаи,Imbaimadai (IMB),GY,Guyana,-60.283333,5.716667
1193,3046,IPC,Easter Island,остров Пасхи,Easter Island (IPC),CL,Chile,-109.36667,-27.116667
1194,3057,IQN,Qingyang,Цинъян,Qingyang (IQN),CN,China,107.6044,35.8001
1195,3058,IQQ,Iquique,Икике,Iquique (IQQ),CL,Chile,-70.17848,-20.547937
1196,3106,IUM,Summit Lake,Саммит-Лейк,Summit Lake (IUM),CA,Canada,-122.666664,54.333332
1197,3113,IVO,Chivolo,Чиволо,Chivolo (IVO),CO,Colombia,-74.53333,9.516667
1198,3115,IVW,Inverway,Инверуэй,Inverway (IVW),AU,Australia,129.63333,-17.833332
1199,3153,JAK,Jacmel,Жакмель,Jacmel (JAK),HT,Haiti,-72.51861,18.240557
1200,3170,JCK,Julia Creek,Джулия-Крик,Julia Creek (JCK),AU,Australia,141.7,-20.583332
1201,2434,GLE,Gainesville,Гейнсвилл,Gainesville (GLE),US,United States,-97.13333,33.63333
1202,2447,GLS,Galveston,Галвестон,Galveston (GLS),US,United States,-94.860275,29.2675
1203,8784,GMO,Gombe,Гомбе,Gombe (GMO),NG,Nigeria,10.898889,10.298056
1204,2468,GNG,Gooding,Гудинг,Gooding (GNG),US,United States,-114.71667,42.933334
1205,2478,GOA,Genoa,Генуя,Genoa (GOA),IT,Italy,8.85081,44.415066
1206,2502,GPI,Guapi,Гуапи,Guapi (GPI),CO,Colombia,-78.34167,2.5
1207,2505,GPO,General Pico,Хенераль-Пико,General Pico (GPO),AR,Argentina,-63.766666,-35.63333
1208,2550,GTB,Genting,Гентинг,Genting (GTB),MY,Malaysia,111.7,2.116667
1209,2551,GTC,Green Turtle,Грин-Тертл,Green Turtle (GTC),BS,Bahamas,-77.36667,26.25
1210,2552,GTE,Groote Island,Грут-Айленд,Groote Island (GTE),AU,Australia,136.46002,-13.973887
1211,2559,GTT,Georgetown,Джорджтаун,Georgetown (GTT),AU,Australia,143.78334,-18.416668
1212,2570,GUI,Guiria,Гуирия,Guiria (GUI),VE,Venezuela,-62.3,10.566667
1213,2575,GUP,Gallup,Гэллап,Gallup (GUP),US,United States,-108.78667,35.511112
1214,2581,GUW,Atyrau,Атырау,Atyrau (GUW),KZ,Kazakhstan,51.829556,47.122814
1215,2023,ESD,Eastsound,Истсаунд,Eastsound (ESD),US,United States,-122.9125,48.708332
1216,9157,ETR,Santa Rosa,Санта-Роса,Santa Rosa (ETR),EC,Ecuador,-79.96167,-3.452222
1217,2046,EUA,Eua,Эуа,Eua (EUA),TO,Tonga,-174.95699,-21.377012
1218,2086,FAF,Fort Eustis,Форт-Юстис,Fort Eustis (FAF),US,United States,-76.6,37.166668
1219,2088,FAH,Farah,Фарах,Farah (FAH),AF,Afghanistan,62.11667,32.36667
1220,8743,FAU,Fahud,Фахуд,Fahud (FAU),OM,Oman,56.51774864077899,22.321450652304875
1221,8754,FBA,Fonte Boa,Фонти-Боа,Fonte Boa (FBA),BR,Brazil,-66.08454,-2.531212
1222,2122,FEC,Feira De Santana,Фейра-ди-Сантана,Feira De Santana (FEC),BR,Brazil,-38.906113,-12.2025
1223,2209,FOK,Westhampton,Уэстгемптон,Westhampton (FOK),US,United States,-72.666664,40.833332
1224,2217,FOU,Fougamou,Фугаму,Fougamou (FOU),GA,Gabon,10.783333,-1.2
1225,2264,FUB,Fulleborn,Фуллеборн,Fulleborn (FUB),PG,Papua New Guinea,150.65,-6.066667
1226,2273,FUT,Futuna Island,Футуна,Futuna Island (FUT),WF,Wallis and Futuna,-178.15,-14.25
1227,2295,GAJ,Yamagata,Ямагата,Yamagata (GAJ),JP,Japan,140.36583,38.410645
1228,2300,GAO,Guantanamo,Гуантанамо,Guantanamo (GAO),CU,Cuba,-75.209007,20.14303
1229,14,AAO,Anaco,Анако,Anaco (AAO),VE,Venezuela,-64.46389,9.431944
1230,17,AAS,Apalapsili,Апалапсили,Apalapsili (AAS),ID,Indonesia,139.25,-3.916667
1231,18,AAT,Altay,Алтай,Altay (AAT),CN,China,88.08444,47.750362
1232,21,AAW,Abbottabad,Абботтабад,Abbottabad (AAW),PK,Pakistan,73.25,34.2
1233,40,ABQ,Albuquerque,Альбукерке,Albuquerque (ABQ),US,United States,-106.617195,35.049625
1234,57,ACJ,Anuradhapura,Анурадхапура,Anuradhapura (ACJ),LK,Sri Lanka,80.38333,8.35
1235,66,ACU,Achutupo,Ачутупо,Achutupo (ACU),PA,Panama,-79.72444,9.576389
1236,83,ADR,Andrews,Эндрюс,Andrews (ADR),US,United States,-79.566666,33.45
1237,139,AHC,Herlong,Херлонг,Herlong (AHC),US,United States,-120.13333,40.15
1238,144,AHL,Aishalton,Эйшелтон,Aishalton (AHL),GY,Guyana,-59.316666,2.483333
1239,8588,AHM,Ashland,Эшленд,Ashland (AHM),US,United States,-82.6379,38.4784
1240,148,AHT,Amchitka,Амчитка,Amchitka (AHT),US,United States,179.0,51.5
1241,9137,AHW,Saih Rawl,Сайх-Роул,Saih Rawl (AHW),OM,Oman,48.74668,31.34292
1242,153,AIB,Anita Bay,Анита-Бэй,Anita Bay (AIB),US,United States,-132.38333,56.233334
1243,3646,KRL,Korla,Корла,Korla (KRL),CN,China,86.12434,41.689896
1244,3659,KRY,Karamay,Карамай,Karamay (KRY),CN,China,84.889207,45.579889
1245,3677,KSQ,Karshi,Карши,Karshi (KSQ),UZ,Uzbekistan,65.77531,38.80981
1246,3693,KTH,Tikchik,Тикчик,Tikchik (KTH),US,United States,-158.33333,59.966667
1247,3723,KUP,Kupiano,Купиано,Kupiano (KUP),PG,Papua New Guinea,148.16667,-10.091667
1248,3738,KVE,Kitava,Китава,Kitava (KVE),PG,Papua New Guinea,151.33333,-8.666667
1249,8878,KVR,Kavalerovo,Кавалерово,Kavalerovo (KVR),RU,Russia,135.0357,44.266865
1250,3772,KXU,Katiu,Катиу,Katiu (KXU),PF,French Polynesia,-144.40306,-16.339443
1251,3785,KYX,Yalumet,Ялумет,Yalumet (KYX),PG,Papua New Guinea,147.01666,-6.183333
1252,3819,LAW,Lawton,Лотон,Lawton (LAW),US,United States,-98.416115,34.56972
1253,3823,LBA,Leeds,Лидс,Leeds (LBA),GB,United Kingdom,-1.4722292000000001,53.8371263
1254,3837,LBR,Labrea,Лабреа,Labrea (LBR),BR,Brazil,-64.85,-7.25
1255,3897,LEN,Leon,Леон,Leon (LEN),ES,Spain,-5.571752,42.5998764
1256,3903,LET,Leticia,Летисия,Leticia (LET),CO,Colombia,-69.939445,-4.196389
1257,2482,GOG,Gobabis,Гобабис,Gobabis (GOG),NA,Namibia,18.974722,-22.504723
1258,2485,GOJ,Nizhniy Novgorod,Нижний Новгород,Nizhniy Novgorod (GOJ),RU,Russia,43.789764,56.218613
1259,2523,GRP,Gurupi,Гурупи,Gurupi (GRP),BR,Brazil,-49.216667,-11.666667
1260,2543,GSQ,Shark Elowainat,Шарк-эль-Овайнат,Shark Elowainat (GSQ),EG,Egypt,28.716667,22.583332
1261,2580,GUV,Mougulu,Моугулу,Mougulu (GUV),PG,Papua New Guinea,142.41667,-6.283333
1262,2660,HCM,Eil,Эйль,Eil (HCM),SO,Somalia,49.8,7.916667
1263,2675,HDY,Hat Yai,Хатъяй,Hat Yai (HDY),TH,Thailand,100.39356,6.936764
